[{"province_id":2,"data":[{"phone_area_code":"74","citymun_id":18,"name":"Bangued","zip_code":"2800"},{"phone_area_code":"74","citymun_id":19,"name":"Boliney","zip_code":"2815"},{"phone_area_code":"74","citymun_id":20,"name":"Bucay","zip_code":"2805"},{"phone_area_code":"74","citymun_id":21,"name":"Bucloc","zip_code":"2817"},{"phone_area_code":"74","citymun_id":22,"name":"Daguioman","zip_code":"2816"},{"phone_area_code":"74","citymun_id":23,"name":"Danglas","zip_code":"2825"},{"phone_area_code":"74","citymun_id":24,"name":"Dolores","zip_code":"2801"},{"phone_area_code":"74","citymun_id":26,"name":"Lacub","zip_code":"2821"},{"phone_area_code":"74","citymun_id":27,"name":"Lagangilang","zip_code":"2802"},{"phone_area_code":"74","citymun_id":28,"name":"Lagayan","zip_code":"2824"},{"phone_area_code":"74","citymun_id":29,"name":"Langiden","zip_code":"2807"},{"phone_area_code":"74","citymun_id":25,"name":"La Paz","zip_code":"2826"},{"phone_area_code":"74","citymun_id":30,"name":"Licuan-Baay","zip_code":"2819"},{"phone_area_code":"74","citymun_id":31,"name":"Luba","zip_code":"2813"},{"phone_area_code":"74","citymun_id":32,"name":"Malibcong","zip_code":"2820"},{"phone_area_code":"74","citymun_id":33,"name":"Manabo","zip_code":"2810"},{"phone_area_code":"74","citymun_id":34,"name":"Peñarrubia","zip_code":"2804"},{"phone_area_code":"74","citymun_id":35,"name":"Pidigan","zip_code":"2806"},{"phone_area_code":"74","citymun_id":36,"name":"Pilar","zip_code":"2812"},{"phone_area_code":"74","citymun_id":37,"name":"Sallapadan","zip_code":"2818"},{"phone_area_code":"74","citymun_id":38,"name":"San Isidro","zip_code":"2809"},{"phone_area_code":"74","citymun_id":39,"name":"San Juan","zip_code":"2823"},{"phone_area_code":"74","citymun_id":40,"name":"San Quintin","zip_code":"2808"},{"phone_area_code":"74","citymun_id":41,"name":"Tayum","zip_code":"2803"},{"phone_area_code":"74","citymun_id":42,"name":"Tineg","zip_code":"2822"},{"phone_area_code":"74","citymun_id":43,"name":"Tubo","zip_code":"2814"},{"phone_area_code":"74","citymun_id":44,"name":"Villaviciosa","zip_code":"2811"}]},{"province_id":73,"data":[{"phone_area_code":"85","citymun_id":1442,"location":"Buenavista","zip_code":"8601"},{"phone_area_code":"85","citymun_id":1443,"location":"Butuan City","zip_code":"8600"},{"phone_area_code":"85","citymun_id":1444,"location":"Cabadbaran","zip_code":"8605"},{"phone_area_code":"85","citymun_id":1445,"location":"Carmen","zip_code":"8603"},{"phone_area_code":"85","citymun_id":1446,"location":"Jabonga","zip_code":"8607"},{"phone_area_code":"85","citymun_id":1447,"location":"Kitcharao","zip_code":"8609"},{"phone_area_code":"85","citymun_id":1448,"location":"Las Nieves","zip_code":"8610"},{"phone_area_code":"85","citymun_id":1449,"location":"Magallanes","zip_code":"8604"},{"phone_area_code":"85","citymun_id":1450,"location":"Nasipit","zip_code":"8602"},{"phone_area_code":"85","citymun_id":1451,"location":"Remedios T. Romualdez","zip_code":"8611"},{"phone_area_code":"85","citymun_id":1452,"location":"Santiago","zip_code":"8608"},{"phone_area_code":"85","citymun_id":1453,"location":"Tubay","zip_code":"8606"}]},{"province_id":74,"data":[{"phone_area_code":"85","citymun_id":1454,"location":"Bayugan","zip_code":"8502"},{"phone_area_code":"85","citymun_id":1455,"location":"Bunawan","zip_code":"8506"},{"phone_area_code":"85","citymun_id":1456,"location":"Esperanza","zip_code":"8513"},{"phone_area_code":"85","citymun_id":1457,"location":"La Paz","zip_code":"8508"},{"phone_area_code":"85","citymun_id":1458,"location":"Loreto","zip_code":"8507"},{"phone_area_code":"85","citymun_id":1459,"location":"Prosperidad","zip_code":"8500"},{"phone_area_code":"85","citymun_id":1460,"location":"Rosario","zip_code":"8504"},{"phone_area_code":"85","citymun_id":1461,"location":"San Francisco","zip_code":"8501"},{"phone_area_code":"85","citymun_id":1462,"location":"San Luis","zip_code":"8511"},{"phone_area_code":"85","citymun_id":1463,"location":"Santa Josefa","zip_code":"8512"},{"phone_area_code":"85","citymun_id":1464,"location":"Sibagat","zip_code":"8503"},{"phone_area_code":"85","citymun_id":1465,"location":"Talacogon","zip_code":"8510"},{"phone_area_code":"85","citymun_id":1466,"location":"Trento","zip_code":"8505"},{"phone_area_code":"85","citymun_id":1467,"location":"Veruela","zip_code":"8509"}]},{"province_id":40,"data":[{"phone_area_code":"36","citymun_id":772,"location":"Altavas","zip_code":"5616"},{"phone_area_code":"36","citymun_id":773,"location":"Balete","zip_code":"5614"},{"phone_area_code":"36","citymun_id":774,"location":"Banga","zip_code":"5601"},{"phone_area_code":"36","citymun_id":775,"location":"Batan","zip_code":"5615"},{"phone_area_code":"36","citymun_id":776,"location":"Buruanga","zip_code":"5609"},{"phone_area_code":"36","citymun_id":777,"location":"Ibajay","zip_code":"5613"},{"phone_area_code":"36","citymun_id":778,"location":"Kalibo","zip_code":"5600"},{"phone_area_code":"36","citymun_id":779,"location":"Lezo","zip_code":"5605"},{"phone_area_code":"36","citymun_id":780,"location":"Libacao","zip_code":"5602"},{"phone_area_code":"36","citymun_id":781,"location":"Madalag","zip_code":"5603"},{"phone_area_code":"36","citymun_id":782,"location":"Makato","zip_code":"5611"},{"phone_area_code":"36","citymun_id":783,"location":"Malay","zip_code":"5608"},{"phone_area_code":"36","citymun_id":784,"location":"Malinao","zip_code":"5606"},{"phone_area_code":"36","citymun_id":785,"location":"Nabas","zip_code":"5607"},{"phone_area_code":"36","citymun_id":786,"location":"New Washington","zip_code":"5610"},{"phone_area_code":"36","citymun_id":787,"location":"Numancia","zip_code":"5604"},{"phone_area_code":"36","citymun_id":788,"location":"Tangalan","zip_code":"5612"}]},{"province_id":34,"data":[{"phone_area_code":"52","citymun_id":658,"location":"Bacacay","zip_code":"4509"},{"phone_area_code":"52","citymun_id":659,"location":"Camalig","zip_code":"4502"},{"phone_area_code":"52","citymun_id":660,"location":"Daraga (Locsin)","zip_code":"4501"},{"phone_area_code":"52","citymun_id":661,"location":"Guinobatan","zip_code":"4503"},{"phone_area_code":"52","citymun_id":662,"location":"Jovellar","zip_code":"4515"},{"phone_area_code":"52","citymun_id":663,"location":"Legaspi City","zip_code":"4500"},{"phone_area_code":"52","citymun_id":664,"location":"Libon","zip_code":"4507"},{"phone_area_code":"52","citymun_id":665,"location":"Ligao","zip_code":"4504"},{"phone_area_code":"52","citymun_id":666,"location":"Malilipot","zip_code":"4510"},{"phone_area_code":"52","citymun_id":667,"location":"Malinao","zip_code":"4512"},{"phone_area_code":"52","citymun_id":668,"location":"Manito","zip_code":"4514"},{"phone_area_code":"52","citymun_id":669,"location":"Oas","zip_code":"4504"},{"phone_area_code":"52","citymun_id":670,"location":"Pio Duran (Malacbalac)","zip_code":"4516"},{"phone_area_code":"52","citymun_id":671,"location":"Polangui","zip_code":"4506"},{"phone_area_code":"52","citymun_id":672,"location":"Rapu-Rapu","zip_code":"4517"},{"phone_area_code":"52","citymun_id":673,"location":"Sto. Domingo","zip_code":"4508"},{"phone_area_code":"52","citymun_id":674,"location":"Tabaco","zip_code":"4511"},{"phone_area_code":"52","citymun_id":675,"location":"Tiwi","zip_code":"4513"}]},{"province_id":41,"data":[{"phone_area_code":"36","citymun_id":789,"location":"Anini-y","zip_code":"5717"},{"phone_area_code":"36","citymun_id":790,"location":"Barbasa","zip_code":"5706"},{"phone_area_code":"36","citymun_id":791,"location":"Belison","zip_code":"5701"},{"phone_area_code":"36","citymun_id":792,"location":"Bugasong","zip_code":"5704"},{"phone_area_code":"36","citymun_id":793,"location":"Caluya","zip_code":"5711"},{"phone_area_code":"36","citymun_id":794,"location":"Culasi","zip_code":"5708"},{"phone_area_code":"36","citymun_id":795,"location":"Hamtic","zip_code":"5715"},{"phone_area_code":"36","citymun_id":796,"location":"Laua-an","zip_code":"5705"},{"phone_area_code":"36","citymun_id":797,"location":"Libertad","zip_code":"5710"},{"phone_area_code":"36","citymun_id":798,"location":"Pandan","zip_code":"5712"},{"phone_area_code":"36","citymun_id":799,"location":"Patnongon","zip_code":"5702"},{"phone_area_code":"36","citymun_id":800,"location":"San Jose","zip_code":"5700"},{"phone_area_code":"36","citymun_id":801,"location":"San Remegio","zip_code":"5714"},{"phone_area_code":"36","citymun_id":802,"location":"Sebaste","zip_code":"5709"},{"phone_area_code":"36","citymun_id":803,"location":"Sibalom","zip_code":"5713"},{"phone_area_code":"36","citymun_id":804,"location":"Tibiao","zip_code":"5707"},{"phone_area_code":"36","citymun_id":805,"location":"Tobias Fornier (Dao)","zip_code":"5716"},{"phone_area_code":"36","citymun_id":806,"location":"Valderrama","zip_code":"5703"}]},{"province_id":17,"data":[{"phone_area_code":"42","citymun_id":313,"location":"Baler","zip_code":"3200"},{"phone_area_code":"42","citymun_id":314,"location":"Casiguran","zip_code":"3204"},{"phone_area_code":"42","citymun_id":315,"location":"Dilasag","zip_code":"3205"},{"phone_area_code":"42","citymun_id":316,"location":"Dinalungan","zip_code":"3206"},{"phone_area_code":"42","citymun_id":317,"location":"Dingalan","zip_code":"3207"},{"phone_area_code":"42","citymun_id":318,"location":"Dipaculao","zip_code":"3203"},{"phone_area_code":"42","citymun_id":319,"location":"Maria Aurora","zip_code":"3202"},{"phone_area_code":"42","citymun_id":320,"location":"San Luis","zip_code":"3201"}]},{"province_id":18,"data":[{"phone_area_code":"47","citymun_id":321,"location":"Abucay","zip_code":"2114"},{"phone_area_code":"47","citymun_id":322,"location":"Bagac","zip_code":"2107"},{"phone_area_code":"47","citymun_id":323,"location":"Balanga","zip_code":"2100"},{"phone_area_code":"47","citymun_id":324,"location":"Dinalupihan","zip_code":"2110"},{"phone_area_code":"47","citymun_id":325,"location":"Hermosa","zip_code":"2111"},{"phone_area_code":"47","citymun_id":326,"location":"Limay","zip_code":"2103"},{"phone_area_code":"47","citymun_id":326,"location":"Lamao","zip_code":"2104"},{"phone_area_code":"47","citymun_id":327,"location":"Mariveles","zip_code":"2105"},{"phone_area_code":"47","citymun_id":327,"location":"Bataan Export Processing Zone (BEPZ) Mariveles","zip_code":"2106"},{"phone_area_code":"47","citymun_id":328,"location":"Morong","zip_code":"2108"},{"phone_area_code":"47","citymun_id":328,"location":"Refugee Processing Center (Morong)","zip_code":"2109"},{"phone_area_code":"47","citymun_id":329,"location":"Orani","zip_code":"2112"},{"phone_area_code":"47","citymun_id":330,"location":"Orion","zip_code":"2102"},{"phone_area_code":"47","citymun_id":331,"location":"Pilar","zip_code":"2101"},{"phone_area_code":"47","citymun_id":332,"location":"Samal","zip_code":"2113"}]},{"province_id":12,"data":[{"phone_area_code":"78","citymun_id":220,"location":"Basco","zip_code":"3900"},{"phone_area_code":"78","citymun_id":221,"location":"Itbayat","zip_code":"3905"},{"phone_area_code":"78","citymun_id":222,"location":"Ivana","zip_code":"3902"},{"phone_area_code":"78","citymun_id":223,"location":"Mahatao","zip_code":"3901"},{"phone_area_code":"78","citymun_id":224,"location":"Sabtang","zip_code":"3904"},{"phone_area_code":"78","citymun_id":225,"location":"Uyugan","zip_code":"3903"}]},{"province_id":24,"data":[{"phone_area_code":"43","citymun_id":443,"location":"Agoncillo","zip_code":"4211"},{"phone_area_code":"43","citymun_id":444,"location":"Alitagtag","zip_code":"4205"},{"phone_area_code":"43","citymun_id":445,"location":"Balayan","zip_code":"4213"},{"phone_area_code":"43","citymun_id":446,"location":"Balete","zip_code":"4219"},{"phone_area_code":"43","citymun_id":447,"location":"Batangas City","zip_code":"4200"},{"phone_area_code":"43","citymun_id":448,"location":"Bauan","zip_code":"4201"},{"phone_area_code":"43","citymun_id":449,"location":"Calaca","zip_code":"4212"},{"phone_area_code":"43","citymun_id":450,"location":"Calatagan","zip_code":"4215"},{"phone_area_code":"43","citymun_id":451,"location":"Cuenca","zip_code":"4222"},{"phone_area_code":"43","citymun_id":452,"location":"Ibaan","zip_code":"4230"},{"phone_area_code":"43","citymun_id":453,"location":"Laurel","zip_code":"4221"},{"phone_area_code":"43","citymun_id":454,"location":"Lemery","zip_code":"4209"},{"phone_area_code":"43","citymun_id":455,"location":"Lian","zip_code":"4216"},{"phone_area_code":"43","citymun_id":456,"location":"Lipa City","zip_code":"4217"},{"phone_area_code":"43","citymun_id":456,"location":"Fernando Air Base","zip_code":"4218"},{"phone_area_code":"43","citymun_id":457,"location":"Lobo","zip_code":"4229"},{"phone_area_code":"43","citymun_id":458,"location":"Mabini","zip_code":"4202"},{"phone_area_code":"43","citymun_id":459,"location":"Malvar","zip_code":"4233"},{"phone_area_code":"43","citymun_id":460,"location":"Mataasnakahoy","zip_code":"4223"},{"phone_area_code":"43","citymun_id":461,"location":"Nasugbu","zip_code":"4231"},{"phone_area_code":"43","citymun_id":462,"location":"Padre Garcia","zip_code":"4224"},{"phone_area_code":"43","citymun_id":463,"location":"Rosario","zip_code":"4225"},{"phone_area_code":"43","citymun_id":464,"location":"San Jose","zip_code":"4227"},{"phone_area_code":"43","citymun_id":465,"location":"San Juan","zip_code":"4226"},{"phone_area_code":"43","citymun_id":466,"location":"San Luis","zip_code":"4210"},{"phone_area_code":"43","citymun_id":467,"location":"San Nicolas","zip_code":"4207"},{"phone_area_code":"43","citymun_id":468,"location":"San Pascual","zip_code":"4204"},{"phone_area_code":"43","citymun_id":469,"location":"Santa Teresita","zip_code":"4206"},{"phone_area_code":"43","citymun_id":470,"location":"Santo Tomas","zip_code":"4234"},{"phone_area_code":"43","citymun_id":471,"location":"Taal","zip_code":"4208"},{"phone_area_code":"43","citymun_id":472,"location":"Talisay","zip_code":"4220"},{"phone_area_code":"43","citymun_id":473,"location":"Tanauan","zip_code":"4232"},{"phone_area_code":"43","citymun_id":474,"location":"Taysan","zip_code":"4228"},{"phone_area_code":"43","citymun_id":475,"location":"Tingloy","zip_code":"4203"},{"phone_area_code":"43","citymun_id":476,"location":"Tuy","zip_code":"4214"}]},{"province_id":4,"data":[{"phone_area_code":"74","citymun_id":52,"location":"Atok","zip_code":"2612"},{"phone_area_code":"74","citymun_id":53,"location":"Baguio City","zip_code":"2600"},{"phone_area_code":"74","citymun_id":53,"location":"Philippine Military Academy (PMA)","zip_code":"2602"},{"phone_area_code":"74","citymun_id":54,"location":"Bakun","zip_code":"2610"},{"phone_area_code":"74","citymun_id":55,"location":"Bokod","zip_code":"2605"},{"phone_area_code":"74","citymun_id":56,"location":"Buguias","zip_code":"2607"},{"phone_area_code":"74","citymun_id":57,"location":"Itogon","zip_code":"2604"},{"phone_area_code":"74","citymun_id":58,"location":"Kabayan","zip_code":"2606"},{"phone_area_code":"74","citymun_id":59,"location":"Kapangan","zip_code":"2613"},{"phone_area_code":"74","citymun_id":60,"location":"Kibungan","zip_code":"2611"},{"phone_area_code":"74","citymun_id":61,"location":"La Trinidad","zip_code":"2601"},{"phone_area_code":"74","citymun_id":62,"location":"Mankayan","zip_code":"2608"},{"phone_area_code":"74","citymun_id":62,"location":"Lepanto","zip_code":"2609"},{"phone_area_code":"74","citymun_id":63,"location":"Sablan","zip_code":"2614"},{"phone_area_code":"74","citymun_id":64,"location":"Tuba","zip_code":"2603"},{"phone_area_code":"74","citymun_id":65,"location":"Tublay","zip_code":"2615"}]},{"province_id":50,"data":[{"phone_area_code":"53","citymun_id":1037,"location":"Almeria","zip_code":"6544"},{"phone_area_code":"53","citymun_id":1038,"location":"Biliran","zip_code":"6549"},{"phone_area_code":"53","citymun_id":1038,"location":"Cabucgayan","zip_code":"6550"},{"phone_area_code":"53","citymun_id":1040,"location":"Caibiran","zip_code":"6548"},{"phone_area_code":"53","citymun_id":1041,"location":"Culaba","zip_code":"6547"},{"phone_area_code":"53","citymun_id":1042,"location":"Kawayan","zip_code":"6545"},{"phone_area_code":"53","citymun_id":1043,"location":"Maripipi","zip_code":"6546"},{"phone_area_code":"53","citymun_id":1044,"location":"Naval","zip_code":"6543"}]},{"province_id":46,"data":[{"phone_area_code":"38","citymun_id":905,"location":"Alburquerque","zip_code":"6302"},{"phone_area_code":"38","citymun_id":906,"location":"Alicia","zip_code":"6314"},{"phone_area_code":"38","citymun_id":907,"location":"Anda","zip_code":"6311"},{"phone_area_code":"38","citymun_id":908,"location":"Antequera","zip_code":"6335"},{"phone_area_code":"38","citymun_id":909,"location":"Baclayon","zip_code":"6301"},{"phone_area_code":"38","citymun_id":910,"location":"Balilihan","zip_code":"6342"},{"phone_area_code":"38","citymun_id":911,"location":"Batuan","zip_code":"6318"},{"phone_area_code":"38","citymun_id":912,"location":"Bien Unido","zip_code":"6326"},{"phone_area_code":"38","citymun_id":913,"location":"Bilar","zip_code":"6317"},{"phone_area_code":"38","citymun_id":914,"location":"Buenavista","zip_code":"6333"},{"phone_area_code":"38","citymun_id":915,"location":"Calape","zip_code":"6328"},{"phone_area_code":"38","citymun_id":916,"location":"Candijay","zip_code":"6312"},{"phone_area_code":"38","citymun_id":917,"location":"Carmen","zip_code":"6319"},{"phone_area_code":"38","citymun_id":918,"location":"Catigbian","zip_code":"6343"},{"phone_area_code":"38","citymun_id":919,"location":"Clarin","zip_code":"6330"},{"phone_area_code":"38","citymun_id":920,"location":"Corella","zip_code":"6337"},{"phone_area_code":"38","citymun_id":921,"location":"Cortes","zip_code":"6341"},{"phone_area_code":"38","citymun_id":922,"location":"Dagohoy","zip_code":"6322"},{"phone_area_code":"38","citymun_id":923,"location":"Danao","zip_code":"6344"},{"phone_area_code":"38","citymun_id":924,"location":"Dauis","zip_code":"6339"},{"phone_area_code":"38","citymun_id":925,"location":"Dimiao","zip_code":"6305"},{"phone_area_code":"38","citymun_id":926,"location":"Duero","zip_code":"6309"},{"phone_area_code":"38","citymun_id":927,"location":"Garcia Hernandez","zip_code":"6307"},{"phone_area_code":"38","citymun_id":928,"location":"Getafe","zip_code":"6334"},{"phone_area_code":"38","citymun_id":929,"location":"Guindulman","zip_code":"6310"},{"phone_area_code":"38","citymun_id":930,"location":"Inabanga","zip_code":"6332"},{"phone_area_code":"38","citymun_id":931,"location":"Jagna","zip_code":"6308"},{"phone_area_code":"38","citymun_id":932,"location":"Lila","zip_code":"6304"},{"phone_area_code":"38","citymun_id":933,"location":"Loay","zip_code":"6303"},{"phone_area_code":"38","citymun_id":934,"location":"Loboc","zip_code":"6316"},{"phone_area_code":"38","citymun_id":935,"location":"Loon","zip_code":"6327"},{"phone_area_code":"38","citymun_id":936,"location":"Mabini","zip_code":"6313"},{"phone_area_code":"38","citymun_id":937,"location":"Maribojoc","zip_code":"6336"},{"phone_area_code":"38","citymun_id":938,"location":"Panglao","zip_code":"6340"},{"phone_area_code":"38","citymun_id":939,"location":"Pilar","zip_code":"6321"},{"phone_area_code":"38","citymun_id":940,"location":"President Carlos P. Garcia","zip_code":"6346"},{"phone_area_code":"38","citymun_id":941,"location":"Sagbayan","zip_code":"6331"},{"phone_area_code":"38","citymun_id":942,"location":"San Isidro","zip_code":"6345"},{"phone_area_code":"38","citymun_id":943,"location":"San Miguel","zip_code":"6323"},{"phone_area_code":"38","citymun_id":944,"location":"Sevilla","zip_code":"6347"},{"phone_area_code":"38","citymun_id":945,"location":"Sierra Bullones","zip_code":"6320"},{"phone_area_code":"38","citymun_id":946,"location":"Sikatuna","zip_code":"6338"},{"phone_area_code":"38","citymun_id":947,"location":"Tagbilaran City","zip_code":"6300"},{"phone_area_code":"38","citymun_id":948,"location":"Talibon","zip_code":"6325"},{"phone_area_code":"38","citymun_id":949,"location":"Trinidad","zip_code":"6324"},{"phone_area_code":"38","citymun_id":950,"location":"Tubigon","zip_code":"6329"},{"phone_area_code":"38","citymun_id":951,"location":"Ubay","zip_code":"6315"},{"phone_area_code":"38","citymun_id":952,"location":"Valencia","zip_code":"6306"}]},{"province_id":59,"data":[{"phone_area_code":"88","citymun_id":1251,"location":"Baungon","zip_code":"8707"},{"phone_area_code":"88","citymun_id":1252,"location":"Cabanglasan","zip_code":"8723"},{"phone_area_code":"88","citymun_id":1253,"location":"Damulog","zip_code":"8721"},{"phone_area_code":"88","citymun_id":1254,"location":"Dangcagan","zip_code":"8719"},{"phone_area_code":"88","citymun_id":1255,"location":"Don Carlos","zip_code":"8712"},{"phone_area_code":"88","citymun_id":1256,"location":"Impasugong","zip_code":"8702"},{"phone_area_code":"88","citymun_id":1257,"location":"Kadingilan","zip_code":"8713"},{"phone_area_code":"88","citymun_id":1258,"location":"Kalilangan","zip_code":"8718"},{"phone_area_code":"88","citymun_id":1259,"location":"Kibawe","zip_code":"8720"},{"phone_area_code":"88","citymun_id":1260,"location":"Kitaotao","zip_code":"8716"},{"phone_area_code":"88","citymun_id":1261,"location":"Lantapan","zip_code":"8722"},{"phone_area_code":"88","citymun_id":1261,"location":"Libona","zip_code":"8706"},{"phone_area_code":"88","citymun_id":1263,"location":"Malaybalay","zip_code":"8700"},{"phone_area_code":"88","citymun_id":1264,"location":"Malitbog","zip_code":"8704"},{"phone_area_code":"88","citymun_id":1265,"location":"Manolo Fortich","zip_code":"8703"},{"phone_area_code":"88","citymun_id":1265,"location":"Camp Phillips","zip_code":"8705"},{"phone_area_code":"88","citymun_id":1266,"location":"Maramag","zip_code":"8714"},{"phone_area_code":"88","citymun_id":1267,"location":"Pangantucan","zip_code":"8717"},{"phone_area_code":"88","citymun_id":1268,"location":"Quezon","zip_code":"8715"},{"phone_area_code":"88","citymun_id":1269,"location":"San Fernando","zip_code":"8711"},{"phone_area_code":"88","citymun_id":1270,"location":"Sumilao","zip_code":"8701"},{"phone_area_code":"88","citymun_id":1271,"location":"Talakag","zip_code":"8708"},{"phone_area_code":"88","citymun_id":1272,"location":"Valencia","zip_code":"8709"},{"phone_area_code":"88","citymun_id":1272,"location":"Musuan","zip_code":"8710"}]},{"province_id":19,"data":[{"phone_area_code":"44","citymun_id":333,"location":"Angat","zip_code":"3012"},{"phone_area_code":"44","citymun_id":334,"location":"Balagtas","zip_code":"3016"},{"phone_area_code":"44","citymun_id":335,"location":"Baliuag","zip_code":"3006"},{"phone_area_code":"44","citymun_id":336,"location":"Bocaue","zip_code":"3018"},{"phone_area_code":"44","citymun_id":337,"location":"Bulakan","zip_code":"3017"},{"phone_area_code":"44","citymun_id":338,"location":"Bustos","zip_code":"3007"},{"phone_area_code":"44","citymun_id":339,"location":"Calumpit","zip_code":"3003"},{"phone_area_code":"44","citymun_id":340,"location":"Doña Remedios Trinidad","zip_code":"3009"},{"phone_area_code":"44","citymun_id":341,"location":"Guiguinto","zip_code":"3015"},{"phone_area_code":"44","citymun_id":342,"location":"Hagonoy","zip_code":"3002"},{"phone_area_code":"44","citymun_id":343,"location":"Malolos","zip_code":"3000"},{"phone_area_code":"44","citymun_id":344,"location":"Marilao","zip_code":"3019"},{"phone_area_code":"44","citymun_id":345,"location":"Meycauayan","zip_code":"3020"},{"phone_area_code":"44","citymun_id":346,"location":"Norzagaray","zip_code":"3013"},{"phone_area_code":"44","citymun_id":347,"location":"Obando","zip_code":"3021"},{"phone_area_code":"44","citymun_id":348,"location":"Pandi","zip_code":"3014"},{"phone_area_code":"44","citymun_id":349,"location":"Paombong","zip_code":"3001"},{"phone_area_code":"44","citymun_id":350,"location":"Plaridel","zip_code":"3004"},{"phone_area_code":"44","citymun_id":351,"location":"Pulilan","zip_code":"3005"},{"phone_area_code":"44","citymun_id":352,"location":"San Ildefonso","zip_code":"3010"},{"phone_area_code":"44","citymun_id":353,"location":"San Jose del Monte","zip_code":"3023"},{"phone_area_code":"44","citymun_id":353,"location":"Sapang Palay","zip_code":"3024"},{"phone_area_code":"44","citymun_id":354,"location":"San Miguel","zip_code":"3011"},{"phone_area_code":"44","citymun_id":355,"location":"San Rafael","zip_code":"3008"},{"phone_area_code":"44","citymun_id":356,"location":"Santa Maria","zip_code":"3022"}]},{"province_id":13,"data":[{"phone_area_code":"78","citymun_id":226,"location":"Abulug","zip_code":"3517"},{"phone_area_code":"78","citymun_id":227,"location":"Alcala","zip_code":"3506"},{"phone_area_code":"78","citymun_id":228,"location":"Allacapan","zip_code":"3523"},{"phone_area_code":"78","citymun_id":229,"location":"Amulung","zip_code":"3505"},{"phone_area_code":"78","citymun_id":230,"location":"Aparri","zip_code":"3515"},{"phone_area_code":"78","citymun_id":231,"location":"Baggao","zip_code":"3506"},{"phone_area_code":"78","citymun_id":232,"location":"Ballesteros","zip_code":"3516"},{"phone_area_code":"78","citymun_id":233,"location":"Buguey","zip_code":"3511"},{"phone_area_code":"78","citymun_id":234,"location":"Calayan","zip_code":"3520"},{"phone_area_code":"78","citymun_id":235,"location":"Camalaniugan","zip_code":"3510"},{"phone_area_code":"78","citymun_id":236,"location":"Claveria","zip_code":"3519"},{"phone_area_code":"78","citymun_id":237,"location":"Enrile","zip_code":"3501"},{"phone_area_code":"78","citymun_id":238,"location":"Gattaran","zip_code":"3508"},{"phone_area_code":"78","citymun_id":239,"location":"Gonzaga","zip_code":"3511"},{"phone_area_code":"78","citymun_id":240,"location":"Iguig","zip_code":"3504"},{"phone_area_code":"78","citymun_id":241,"location":"Lal-lo","zip_code":"3509"},{"phone_area_code":"78","citymun_id":242,"location":"Lasam","zip_code":"3524"},{"phone_area_code":"78","citymun_id":243,"location":"Pamplona","zip_code":"3522"},{"phone_area_code":"78","citymun_id":244,"location":"Peñablanca","zip_code":"3502"},{"phone_area_code":"78","citymun_id":245,"location":"Piat","zip_code":"3527"},{"phone_area_code":"78","citymun_id":246,"location":"Rizal","zip_code":"3526"},{"phone_area_code":"78","citymun_id":247,"location":"Sanchez-Mira","zip_code":"3518"},{"phone_area_code":"78","citymun_id":248,"location":"Santa Ana","zip_code":"3514"},{"phone_area_code":"78","citymun_id":249,"location":"Santa Praxedes","zip_code":"3521"},{"phone_area_code":"78","citymun_id":250,"location":"Santa Teresita","zip_code":"3512"},{"phone_area_code":"78","citymun_id":251,"location":"Santo Niño","zip_code":"3525"},{"phone_area_code":"78","citymun_id":252,"location":"Solana","zip_code":"3503"},{"phone_area_code":"78","citymun_id":253,"location":"Tuao","zip_code":"3528"},{"phone_area_code":"78","citymun_id":254,"location":"Tuguegarao","zip_code":"3500"}]},{"province_id":1,"data":[{"phone_area_code":"2","citymun_id":1,"location":"Amparo Subdivision","zip_code":"1425"},{"phone_area_code":"2","citymun_id":1,"location":"Bagong Silang","zip_code":"1428"},{"phone_area_code":"2","citymun_id":1,"location":"Bagumbong/Pag-asa","zip_code":"1421"},{"phone_area_code":"2","citymun_id":1,"location":"Bankers Village","zip_code":"1426"},{"phone_area_code":"2","citymun_id":1,"location":"Capitol Parkland Subdivision","zip_code":"1424"},{"phone_area_code":"2","citymun_id":1,"location":"Kaybiga/Deparo","zip_code":"1420"},{"phone_area_code":"2","citymun_id":1,"location":"Lilles Ville Subdivision","zip_code":"1423"},{"phone_area_code":"2","citymun_id":1,"location":"Novaliches North","zip_code":"1422"},{"phone_area_code":"2","citymun_id":1,"location":"Tala Leprosaruim","zip_code":"1427"},{"phone_area_code":"2","citymun_id":1,"location":"Victory Heights","zip_code":"1427"}]},{"province_id":1,"data":[{"phone_area_code":"2","citymun_id":1,"location":"1st to 7th Ave. West","zip_code":"1405"},{"phone_area_code":"2","citymun_id":1,"location":"Baesa","zip_code":"1401"},{"phone_area_code":"2","citymun_id":1,"location":"Fish Market","zip_code":"1411"},{"phone_area_code":"2","citymun_id":1,"location":"Grace Park West","zip_code":"1406"},{"phone_area_code":"2","citymun_id":1,"location":"Isla de Cocomo","zip_code":"1412"},{"phone_area_code":"2","citymun_id":1,"location":"Kaloocan City CPO","zip_code":"1400"},{"phone_area_code":"2","citymun_id":1,"location":"Kapitbahayan East","zip_code":"1413"},{"phone_area_code":"2","citymun_id":1,"location":"Kanluran Village","zip_code":"1409"},{"phone_area_code":"2","citymun_id":1,"location":"Maypajo","zip_code":"1410"},{"phone_area_code":"2","citymun_id":1,"location":"San Jose","zip_code":"1404"},{"phone_area_code":"2","citymun_id":1,"location":"Sangandaan","zip_code":"1408"},{"phone_area_code":"2","citymun_id":1,"location":"Sta. Quiteria","zip_code":"1402"},{"phone_area_code":"2","citymun_id":1,"location":"University Hills","zip_code":"1407"}]},{"province_id":35,"data":[{"phone_area_code":"54","citymun_id":676,"location":"Basud","zip_code":"4608"},{"phone_area_code":"54","citymun_id":677,"location":"Capalonga","zip_code":"4606"},{"phone_area_code":"54","citymun_id":678,"location":"Daet","zip_code":"4600"},{"phone_area_code":"54","citymun_id":679,"location":"Jose Panganiban","zip_code":"4606"},{"phone_area_code":"54","citymun_id":680,"location":"Labo","zip_code":"4604"},{"phone_area_code":"54","citymun_id":680,"location":"Tulay na Lupa","zip_code":"4612"},{"phone_area_code":"54","citymun_id":681,"location":"Mercedes","zip_code":"4601"},{"phone_area_code":"54","citymun_id":682,"location":"Paracale","zip_code":"4605"},{"phone_area_code":"54","citymun_id":683,"location":"San Lorenzo Ruiz (Imelda)","zip_code":"4612"},{"phone_area_code":"54","citymun_id":684,"location":"San Vicente","zip_code":"4609"},{"phone_area_code":"54","citymun_id":685,"location":"Santa Elena","zip_code":"4611"},{"phone_area_code":"54","citymun_id":686,"location":"Talisay","zip_code":"4602"},{"phone_area_code":"54","citymun_id":687,"location":"Vinzons","zip_code":"4603"}]},{"province_id":36,"data":[{"phone_area_code":"54","citymun_id":688,"location":"Baao","zip_code":"4432"},{"phone_area_code":"54","citymun_id":689,"location":"Balatan","zip_code":"4436"},{"phone_area_code":"54","citymun_id":690,"location":"Bato","zip_code":"4435"},{"phone_area_code":"54","citymun_id":691,"location":"Bombon","zip_code":"4404"},{"phone_area_code":"54","citymun_id":692,"location":"Buhi","zip_code":"4433"},{"phone_area_code":"54","citymun_id":693,"location":"Bula","zip_code":"4430"},{"phone_area_code":"54","citymun_id":694,"location":"Cabusao","zip_code":"4406"},{"phone_area_code":"54","citymun_id":695,"location":"Calabanga","zip_code":"4405"},{"phone_area_code":"54","citymun_id":696,"location":"Camaligan","zip_code":"4401"},{"phone_area_code":"54","citymun_id":697,"location":"Canaman","zip_code":"4402"},{"phone_area_code":"54","citymun_id":698,"location":"Caramoan","zip_code":"4429"},{"phone_area_code":"54","citymun_id":699,"location":"Del Gallego","zip_code":"4411"},{"phone_area_code":"54","citymun_id":700,"location":"Gainza","zip_code":"4412"},{"phone_area_code":"54","citymun_id":701,"location":"Garchitorena","zip_code":"4428"},{"phone_area_code":"54","citymun_id":702,"location":"Goa","zip_code":"4422"},{"phone_area_code":"54","citymun_id":703,"location":"Iriga City","zip_code":"4431"},{"phone_area_code":"54","citymun_id":704,"location":"Lagonoy","zip_code":"4425"},{"phone_area_code":"54","citymun_id":705,"location":"Libmanan","zip_code":"4407"},{"phone_area_code":"54","citymun_id":706,"location":"Lupi","zip_code":"4409"},{"phone_area_code":"54","citymun_id":707,"location":"Magarao","zip_code":"4403"},{"phone_area_code":"54","citymun_id":708,"location":"Milaor","zip_code":"4413"},{"phone_area_code":"54","citymun_id":709,"location":"Minalabac","zip_code":"4414"},{"phone_area_code":"54","citymun_id":710,"location":"Nabua","zip_code":"4434"},{"phone_area_code":"54","citymun_id":711,"location":"Naga City","zip_code":"4400"},{"phone_area_code":"54","citymun_id":712,"location":"Ocampo","zip_code":"4419"},{"phone_area_code":"54","citymun_id":713,"location":"Pamplona","zip_code":"4416"},{"phone_area_code":"54","citymun_id":714,"location":"Pasacao","zip_code":"4417"},{"phone_area_code":"54","citymun_id":715,"location":"Pili","zip_code":"4418"},{"phone_area_code":"54","citymun_id":716,"location":"Presentacion","zip_code":"4424"},{"phone_area_code":"54","citymun_id":717,"location":"Ragay","zip_code":"4410"},{"phone_area_code":"54","citymun_id":718,"location":"Sagñay","zip_code":"4421"},{"phone_area_code":"54","citymun_id":719,"location":"San Fernando","zip_code":"4415"},{"phone_area_code":"54","citymun_id":720,"location":"San Jose","zip_code":"4423"},{"phone_area_code":"54","citymun_id":721,"location":"Sipocot","zip_code":"4408"},{"phone_area_code":"54","citymun_id":722,"location":"Siruma","zip_code":"4427"},{"phone_area_code":"54","citymun_id":723,"location":"Tigaon","zip_code":"4420"},{"phone_area_code":"54","citymun_id":724,"location":"Tinambac","zip_code":"4426"}]},{"province_id":60,"data":[{"phone_area_code":"88","citymun_id":1273,"location":"Catarman","zip_code":"9104"},{"phone_area_code":"88","citymun_id":1274,"location":"Guinsiliban","zip_code":"9102"},{"phone_area_code":"88","citymun_id":1275,"location":"Mahinog","zip_code":"9101"},{"phone_area_code":"88","citymun_id":1276,"location":"Mambajao","zip_code":"9100"},{"phone_area_code":"88","citymun_id":1277,"location":"Sagay","zip_code":"9103"}]},{"province_id":42,"data":[{"phone_area_code":"36","citymun_id":807,"location":"Cuartero","zip_code":"5811"},{"phone_area_code":"36","citymun_id":808,"location":"Dao","zip_code":"5810"},{"phone_area_code":"36","citymun_id":809,"location":"Dumalag","zip_code":"5813"},{"phone_area_code":"36","citymun_id":810,"location":"Dumarao","zip_code":"5812"},{"phone_area_code":"36","citymun_id":811,"location":"Ivisan","zip_code":"5805"},{"phone_area_code":"36","citymun_id":812,"location":"Jamindan","zip_code":"5808"},{"phone_area_code":"36","citymun_id":813,"location":"Maayon","zip_code":"5809"},{"phone_area_code":"36","citymun_id":814,"location":"Mambusao","zip_code":"5807"},{"phone_area_code":"36","citymun_id":815,"location":"Panay","zip_code":"5801"},{"phone_area_code":"36","citymun_id":816,"location":"Panitan","zip_code":"5815"},{"phone_area_code":"36","citymun_id":817,"location":"Pilar","zip_code":"5804"},{"phone_area_code":"36","citymun_id":818,"location":"Pontevedra","zip_code":"5802"},{"phone_area_code":"36","citymun_id":819,"location":"President Roxas","zip_code":"5803"},{"phone_area_code":"36","citymun_id":820,"location":"Roxas City","zip_code":"5800"},{"phone_area_code":"36","citymun_id":821,"location":"Sapian","zip_code":"5816"},{"phone_area_code":"36","citymun_id":823,"location":"Tapaz","zip_code":"5814"}]},{"province_id":37,"data":[{"phone_area_code":"52","citymun_id":725,"location":"Bagamanoc","zip_code":"4807"},{"phone_area_code":"52","citymun_id":726,"location":"Baras","zip_code":"4803"},{"phone_area_code":"52","citymun_id":727,"location":"Bato","zip_code":"4801"},{"phone_area_code":"52","citymun_id":728,"location":"Caramoran","zip_code":"4808"},{"phone_area_code":"52","citymun_id":729,"location":"Gigmoto","zip_code":"4804"},{"phone_area_code":"52","citymun_id":730,"location":"Pandan","zip_code":"4809"},{"phone_area_code":"52","citymun_id":731,"location":"Panganiban","zip_code":"4806"},{"phone_area_code":"52","citymun_id":732,"location":"San Andres","zip_code":"4810"},{"phone_area_code":"52","citymun_id":733,"location":"San Miguel","zip_code":"4802"},{"phone_area_code":"52","citymun_id":734,"location":"Viga","zip_code":"4805"},{"phone_area_code":"52","citymun_id":735,"location":"Virac","zip_code":"4800"}]},{"province_id":25,"data":[{"phone_area_code":"46","citymun_id":477,"location":"Alfonso","zip_code":"4123"},{"phone_area_code":"46","citymun_id":478,"location":"Amadeo","zip_code":"4119"},{"phone_area_code":"46","citymun_id":479,"location":"Bacoor","zip_code":"4102"},{"phone_area_code":"46","citymun_id":480,"location":"Carmona","zip_code":"4116"},{"phone_area_code":"46","citymun_id":481,"location":"Cavite City","zip_code":"4100"},{"phone_area_code":"46","citymun_id":481,"location":"Cavite Naval Base","zip_code":"4101"},{"phone_area_code":"46","citymun_id":481,"location":"Corregidor","zip_code":"4125"},{"phone_area_code":"46","citymun_id":482,"location":"Dasmariñas","zip_code":"4114"},{"phone_area_code":"46","citymun_id":482,"location":"Dasmariñas Resettlement Area","zip_code":"4115"},{"phone_area_code":"46","citymun_id":483,"location":"General Mariano Alvarez","zip_code":"4117"},{"phone_area_code":"46","citymun_id":484,"location":"General Emilio Aguinaldo","zip_code":"4124"},{"phone_area_code":"46","citymun_id":485,"location":"General Trias","zip_code":"4107"},{"phone_area_code":"46","citymun_id":486,"location":"Imus","zip_code":"4103"},{"phone_area_code":"46","citymun_id":487,"location":"Indang","zip_code":"4122"},{"phone_area_code":"46","citymun_id":488,"location":"Kawit","zip_code":"4104"},{"phone_area_code":"46","citymun_id":489,"location":"Magallanes","zip_code":"4113"},{"phone_area_code":"46","citymun_id":490,"location":"Maragondon","zip_code":"4112"},{"phone_area_code":"46","citymun_id":491,"location":"Mendez","zip_code":"4121"},{"phone_area_code":"46","citymun_id":492,"location":"Naic","zip_code":"4110"},{"phone_area_code":"46","citymun_id":493,"location":"Noveleta","zip_code":"4105"},{"phone_area_code":"46","citymun_id":494,"location":"Rosario","zip_code":"4106"},{"phone_area_code":"46","citymun_id":495,"location":"Silang","zip_code":"4118"},{"phone_area_code":"46","citymun_id":496,"location":"Tagaytay City","zip_code":"4120"},{"phone_area_code":"46","citymun_id":497,"location":"Tanza","zip_code":"4108"},{"phone_area_code":"46","citymun_id":498,"location":"Ternate","zip_code":"4111"},{"phone_area_code":"46","citymun_id":499,"location":"Trece Martires","zip_code":"4109"}]},{"province_id":47,"data":[{"phone_area_code":"32","citymun_id":953,"location":"Alcantara","zip_code":"6033"},{"phone_area_code":"32","citymun_id":954,"location":"Alcoy","zip_code":"6023"},{"phone_area_code":"32","citymun_id":955,"location":"Alegria","zip_code":"6030"},{"phone_area_code":"32","citymun_id":956,"location":"Aloguinsan","zip_code":"6040"},{"phone_area_code":"32","citymun_id":957,"location":"Argao","zip_code":"6021"},{"phone_area_code":"32","citymun_id":958,"location":"Asturias","zip_code":"6042"},{"phone_area_code":"32","citymun_id":959,"location":"Badian","zip_code":"6031"},{"phone_area_code":"32","citymun_id":960,"location":"Balamban","zip_code":"6041"},{"phone_area_code":"32","citymun_id":961,"location":"Bantayan","zip_code":"6042"},{"phone_area_code":"32","citymun_id":962,"location":"Barili","zip_code":"6036"},{"phone_area_code":"32","citymun_id":963,"location":"Bogo","zip_code":"6010"},{"phone_area_code":"32","citymun_id":964,"location":"Boljoon","zip_code":"6024"},{"phone_area_code":"32","citymun_id":965,"location":"Borbon","zip_code":"6008"},{"phone_area_code":"32","citymun_id":966,"location":"Carcar","zip_code":"6019"},{"phone_area_code":"32","citymun_id":967,"location":"Carmen","zip_code":"6005"},{"phone_area_code":"32","citymun_id":968,"location":"Catmon","zip_code":"6006"},{"phone_area_code":"32","citymun_id":969,"location":"Cebu City","zip_code":"6000"},{"phone_area_code":"32","citymun_id":970,"location":"Compostela","zip_code":"6003"},{"phone_area_code":"32","citymun_id":971,"location":"Consolacion","zip_code":"6001"},{"phone_area_code":"32","citymun_id":972,"location":"Cordoba","zip_code":"6017"},{"phone_area_code":"32","citymun_id":973,"location":"Daanbantayan","zip_code":"6013"},{"phone_area_code":"32","citymun_id":974,"location":"Dalaguete","zip_code":"6022"},{"phone_area_code":"32","citymun_id":975,"location":"Danao","zip_code":"6004"},{"phone_area_code":"32","citymun_id":976,"location":"Dumanjug","zip_code":"6035"},{"phone_area_code":"32","citymun_id":977,"location":"Ginatilan","zip_code":"6026"},{"phone_area_code":"32","citymun_id":978,"location":"Lapu-Lapu City","zip_code":"6015"},{"phone_area_code":"32","citymun_id":978,"location":"Mactan Airport","zip_code":"6016"},{"phone_area_code":"32","citymun_id":979,"location":"Liloan","zip_code":"6002"},{"phone_area_code":"32","citymun_id":980,"location":"Madridejos","zip_code":"6053"},{"phone_area_code":"32","citymun_id":981,"location":"Malabuyoc","zip_code":"6029"},{"phone_area_code":"32","citymun_id":982,"location":"Mandaue City","zip_code":"6014"},{"phone_area_code":"32","citymun_id":983,"location":"Medellin","zip_code":"6012"},{"phone_area_code":"32","citymun_id":984,"location":"Minglanilla","zip_code":"6046"},{"phone_area_code":"32","citymun_id":985,"location":"Moalboal","zip_code":"6032"},{"phone_area_code":"32","citymun_id":986,"location":"Naga","zip_code":"6037"},{"phone_area_code":"32","citymun_id":987,"location":"Oslob","zip_code":"6025"},{"phone_area_code":"32","citymun_id":988,"location":"Pilar","zip_code":"6048"},{"phone_area_code":"32","citymun_id":989,"location":"Pinamungajan","zip_code":"6039"},{"phone_area_code":"32","citymun_id":990,"location":"Poro","zip_code":"6049"},{"phone_area_code":"32","citymun_id":991,"location":"Ronda","zip_code":"6034"},{"phone_area_code":"32","citymun_id":992,"location":"Samboan","zip_code":"6027"},{"phone_area_code":"32","citymun_id":993,"location":"San Fernando","zip_code":"6018"},{"phone_area_code":"32","citymun_id":994,"location":"San Francisco","zip_code":"6050"},{"phone_area_code":"32","citymun_id":995,"location":"San Remigio","zip_code":"6011"},{"phone_area_code":"32","citymun_id":996,"location":"Santa Fe","zip_code":"6047"},{"phone_area_code":"32","citymun_id":997,"location":"Santander","zip_code":"6026"},{"phone_area_code":"32","citymun_id":998,"location":"Sibonga","zip_code":"6020"},{"phone_area_code":"32","citymun_id":999,"location":"Sogod","zip_code":"6007"},{"phone_area_code":"32","citymun_id":1000,"location":"Tabogon","zip_code":"6009"},{"phone_area_code":"32","citymun_id":1001,"location":"Tabuelan","zip_code":"6044"},{"phone_area_code":"32","citymun_id":1002,"location":"Talisay","zip_code":"6045"},{"phone_area_code":"32","citymun_id":1003,"location":"Toledo City","zip_code":"6038"},{"phone_area_code":"32","citymun_id":1004,"location":"Tuburan","zip_code":"6043"},{"phone_area_code":"32","citymun_id":1005,"location":"Tudela","zip_code":"6051"}]},{"province_id":64,"data":[{"phone_area_code":"-","citymun_id":1344,"location":"Compostela","zip_code":"8803"},{"phone_area_code":"-","citymun_id":1345,"location":"Laak","zip_code":"8810"},{"phone_area_code":"-","citymun_id":1346,"location":"Mabini","zip_code":"8807"},{"phone_area_code":"-","citymun_id":1347,"location":"Maco","zip_code":"8806"},{"phone_area_code":"-","citymun_id":1348,"location":"Maragusan","zip_code":"8808"},{"phone_area_code":"-","citymun_id":1349,"location":"Mawab","zip_code":"8802"},{"phone_area_code":"-","citymun_id":1350,"location":"Monkayo","zip_code":"8805"},{"phone_area_code":"-","citymun_id":1351,"location":"Montevista","zip_code":"8801"},{"phone_area_code":"-","citymun_id":1352,"location":"Nabunturan","zip_code":"8800"},{"phone_area_code":"-","citymun_id":1353,"location":"New Bataan","zip_code":"8804"},{"phone_area_code":"-","citymun_id":1354,"location":"Pantukan","zip_code":"8809"}]},{"province_id":69,"data":[{"phone_area_code":"64","citymun_id":1393,"location":"Alamada","zip_code":"9413"},{"phone_area_code":"64","citymun_id":1394,"location":"Aleosan","zip_code":"9415"},{"phone_area_code":"64","citymun_id":1395,"location":"Antipas","zip_code":"9414"},{"phone_area_code":"64","citymun_id":1396,"location":"Arakan","zip_code":"9417"},{"phone_area_code":"64","citymun_id":1397,"location":"Banisilan","zip_code":"9416"},{"phone_area_code":"64","citymun_id":1398,"location":"Carmen","zip_code":"9408"},{"phone_area_code":"64","citymun_id":1399,"location":"Kabacan","zip_code":"9407"},{"phone_area_code":"64","citymun_id":1400,"location":"Kidapawan","zip_code":"9400"},{"phone_area_code":"64","citymun_id":1401,"location":"Libungan","zip_code":"9411"},{"phone_area_code":"64","citymun_id":1403,"location":"Magpet","zip_code":"9404"},{"phone_area_code":"64","citymun_id":1404,"location":"Makilala","zip_code":"9401"},{"phone_area_code":"64","citymun_id":1405,"location":"Matalam","zip_code":"9406"},{"phone_area_code":"64","citymun_id":1406,"location":"Midsayap","zip_code":"9410"},{"phone_area_code":"64","citymun_id":1402,"location":"M'lang","zip_code":"9402"},{"phone_area_code":"64","citymun_id":1407,"location":"Pigcawayan","zip_code":"9412"},{"phone_area_code":"64","citymun_id":1408,"location":"Pikit","zip_code":"9409"},{"phone_area_code":"64","citymun_id":1409,"location":"President Roxas","zip_code":"9405"},{"phone_area_code":"65","citymun_id":1410,"location":"Tulunan","zip_code":"9403"}]},{"province_id":71,"data":[{"phone_area_code":"83","citymun_id":1418,"location":"Banga","zip_code":"9511"},{"phone_area_code":"83","citymun_id":1419,"location":"General Santos City","zip_code":"9500"},{"phone_area_code":"83","citymun_id":1420,"location":"Koronadal","zip_code":"9506"},{"phone_area_code":"83","citymun_id":1422,"location":"Norala","zip_code":"9508"},{"phone_area_code":"83","citymun_id":1423,"location":"Polomolok","zip_code":"9504"},{"phone_area_code":"83","citymun_id":1424,"location":"Santo Niño","zip_code":"9509"},{"phone_area_code":"83","citymun_id":1425,"location":"Surallah","zip_code":"9512"},{"phone_area_code":"83","citymun_id":1428,"location":"Tantangan","zip_code":"9510"},{"phone_area_code":"83","citymun_id":1426,"location":"T'boli","zip_code":"9513"},{"phone_area_code":"83","citymun_id":1427,"location":"Tampakan","zip_code":"9507"},{"phone_area_code":"83","citymun_id":1429,"location":"Tupi","zip_code":"9505"}]},{"province_id":51,"data":[{"phone_area_code":"55","citymun_id":1045,"location":"Arteche","zip_code":"6822"},{"phone_area_code":"55","citymun_id":1046,"location":"Balangiga ","zip_code":"6812"},{"phone_area_code":"55","citymun_id":1048,"location":"Balangkayan","zip_code":"6801"},{"phone_area_code":"55","citymun_id":1048,"location":"Borongan","zip_code":"6800"},{"phone_area_code":"55","citymun_id":1049,"location":"Can-Avid","zip_code":"6806"},{"phone_area_code":"55","citymun_id":1050,"location":"Dolores","zip_code":"6817"},{"phone_area_code":"55","citymun_id":1051,"location":"Gen. McArthur","zip_code":"6805"},{"phone_area_code":"55","citymun_id":1052,"location":"Giporlos","zip_code":"6811"},{"phone_area_code":"55","citymun_id":1053,"location":"Guiuan","zip_code":"6809"},{"phone_area_code":"55","citymun_id":1054,"location":"Hernani","zip_code":"6804"},{"phone_area_code":"55","citymun_id":1055,"location":"Jipapad","zip_code":"6819"},{"phone_area_code":"55","citymun_id":1056,"location":"Lawa-an","zip_code":"6813"},{"phone_area_code":"55","citymun_id":1057,"location":"Llorente","zip_code":"6803"},{"phone_area_code":"55","citymun_id":1058,"location":"Maslog","zip_code":"6820"},{"phone_area_code":"55","citymun_id":1059,"location":"Maydulog","zip_code":"6802"},{"phone_area_code":"55","citymun_id":1060,"location":"Mercedes","zip_code":"6808"},{"phone_area_code":"55","citymun_id":1061,"location":"Oras","zip_code":"6818"},{"phone_area_code":"55","citymun_id":1062,"location":"Quinapundan","zip_code":"6810"},{"phone_area_code":"55","citymun_id":1063,"location":"Salcedo","zip_code":"6807"},{"phone_area_code":"55","citymun_id":1064,"location":"San julian","zip_code":"6814"},{"phone_area_code":"55","citymun_id":1065,"location":"San Policarpio","zip_code":"6821"},{"phone_area_code":"55","citymun_id":1066,"location":"Sulat","zip_code":"6815"},{"phone_area_code":"55","citymun_id":1067,"location":"Taft","zip_code":"6816"}]},{"province_id":43,"data":[{"phone_area_code":"33","citymun_id":824,"location":"Buenavista","zip_code":"5044"},{"phone_area_code":"33","citymun_id":825,"location":"Jordan","zip_code":"5045"},{"phone_area_code":"33","citymun_id":826,"location":"Nueva Valencia","zip_code":"5046"}]},{"province_id":5,"data":[{"phone_area_code":"74","citymun_id":66,"location":"Aguinaldo","zip_code":"3606"},{"phone_area_code":"74","citymun_id":67,"location":"Alfonso Lista","zip_code":"3608"},{"phone_area_code":"74","citymun_id":68,"location":"Asipulo","zip_code":"3610"},{"phone_area_code":"74","citymun_id":69,"location":"Banaue","zip_code":"3601"},{"phone_area_code":"74","citymun_id":70,"location":"Hingyon","zip_code":"3607"},{"phone_area_code":"74","citymun_id":71,"location":"Hungduan","zip_code":"3603"},{"phone_area_code":"74","citymun_id":72,"location":"Kiangan","zip_code":"3604"},{"phone_area_code":"74","citymun_id":73,"location":"Lagawe","zip_code":"3600"},{"phone_area_code":"74","citymun_id":74,"location":"Lamut","zip_code":"3605"},{"phone_area_code":"74","citymun_id":75,"location":"Mayoyao","zip_code":"3602"},{"phone_area_code":"74","citymun_id":76,"location":"Tinoc","zip_code":"3609"}]},{"province_id":8,"data":[{"phone_area_code":"77","citymun_id":95,"location":"Adams","zip_code":"2922"},{"phone_area_code":"77","citymun_id":96,"location":"Bacarra","zip_code":"2916"},{"phone_area_code":"77","citymun_id":97,"location":"Badoc","zip_code":"2904"},{"phone_area_code":"77","citymun_id":98,"location":"Bangui","zip_code":"2920"},{"phone_area_code":"77","citymun_id":99,"location":"Banna","zip_code":"2908"},{"phone_area_code":"77","citymun_id":100,"location":"Batac","zip_code":"2906"},{"phone_area_code":"77","citymun_id":101,"location":"Burgos","zip_code":"2918"},{"phone_area_code":"77","citymun_id":102,"location":"Carasi","zip_code":"2911"},{"phone_area_code":"77","citymun_id":103,"location":"Currimao","zip_code":"2903"},{"phone_area_code":"77","citymun_id":104,"location":"Dingras","zip_code":"2913"},{"phone_area_code":"77","citymun_id":105,"location":"Dumalneg","zip_code":"2921"},{"phone_area_code":"77","citymun_id":106,"location":"Laoag City","zip_code":"2900"},{"phone_area_code":"77","citymun_id":107,"location":"Marcos","zip_code":"2907"},{"phone_area_code":"77","citymun_id":108,"location":"Nueva Era","zip_code":"2909"},{"phone_area_code":"77","citymun_id":109,"location":"Pagudpud","zip_code":"2919"},{"phone_area_code":"77","citymun_id":110,"location":"Paoay","zip_code":"2902"},{"phone_area_code":"77","citymun_id":111,"location":"Pasuquin","zip_code":"2917"},{"phone_area_code":"77","citymun_id":112,"location":"Piddig","zip_code":"2912"},{"phone_area_code":"77","citymun_id":113,"location":"Pinili","zip_code":"2905"},{"phone_area_code":"77","citymun_id":114,"location":"San Nicolas","zip_code":"2901"},{"phone_area_code":"77","citymun_id":115,"location":"Sarrat","zip_code":"2914"},{"phone_area_code":"77","citymun_id":116,"location":"Solsona","zip_code":"2910"},{"phone_area_code":"77","citymun_id":117,"location":"Vintar","zip_code":"2915"}]},{"province_id":9,"data":[{"phone_area_code":"77","citymun_id":118,"location":"Alilem","zip_code":"2716"},{"phone_area_code":"77","citymun_id":119,"location":"Banayoyo","zip_code":"2708"},{"phone_area_code":"77","citymun_id":120,"location":"Bantay","zip_code":"2727"},{"phone_area_code":"77","citymun_id":121,"location":"Burgos","zip_code":"2724"},{"phone_area_code":"77","citymun_id":122,"location":"Cabugao","zip_code":"2732"},{"phone_area_code":"77","citymun_id":123,"location":"Candon","zip_code":"2710"},{"phone_area_code":"77","citymun_id":124,"location":"Caoayan","zip_code":"2702"},{"phone_area_code":"77","citymun_id":125,"location":"Cervantes","zip_code":"2718"},{"phone_area_code":"77","citymun_id":126,"location":"Galimuyod","zip_code":"2709"},{"phone_area_code":"77","citymun_id":127,"location":"Gregorio Del Pilar","zip_code":"2720"},{"phone_area_code":"77","citymun_id":128,"location":"Lidlidda","zip_code":"2723"},{"phone_area_code":"77","citymun_id":129,"location":"Magsingal","zip_code":"2730"},{"phone_area_code":"77","citymun_id":130,"location":"Nagbukel","zip_code":"2725"},{"phone_area_code":"77","citymun_id":131,"location":"Narvacan","zip_code":"2704"},{"phone_area_code":"77","citymun_id":132,"location":"Quirino","zip_code":"2721"},{"phone_area_code":"77","citymun_id":133,"location":"Salcedo","zip_code":"2711"},{"phone_area_code":"77","citymun_id":134,"location":"San Emilio","zip_code":"2722"},{"phone_area_code":"77","citymun_id":135,"location":"San Esteban","zip_code":"2706"},{"phone_area_code":"77","citymun_id":136,"location":"San Ildefonso","zip_code":"2728"},{"phone_area_code":"77","citymun_id":137,"location":"San Juan","zip_code":"2731"},{"phone_area_code":"77","citymun_id":138,"location":"San Vicente","zip_code":"2726"},{"phone_area_code":"77","citymun_id":139,"location":"Santa","zip_code":"2703"},{"phone_area_code":"77","citymun_id":140,"location":"Santa Catalina","zip_code":"2701"},{"phone_area_code":"77","citymun_id":141,"location":"Santa Cruz","zip_code":"2713"},{"phone_area_code":"77","citymun_id":142,"location":"Santa Lucia","zip_code":"2712"},{"phone_area_code":"77","citymun_id":143,"location":"Santa Maria","zip_code":"2705"},{"phone_area_code":"77","citymun_id":144,"location":"Santiago","zip_code":"2707"},{"phone_area_code":"77","citymun_id":145,"location":"Santo Domingo","zip_code":"2729"},{"phone_area_code":"77","citymun_id":145,"location":"Sigay","zip_code":"2719"},{"phone_area_code":"77","citymun_id":147,"location":"Sinait","zip_code":"2733"},{"phone_area_code":"77","citymun_id":148,"location":"Sugpon","zip_code":"2717"},{"phone_area_code":"77","citymun_id":149,"location":"Suyo","zip_code":"2715"},{"phone_area_code":"77","citymun_id":150,"location":"Tagudin","zip_code":"2714"},{"phone_area_code":"77","citymun_id":151,"location":"Vigan","zip_code":"2700"}]},{"province_id":44,"data":[{"phone_area_code":"33","citymun_id":829,"location":"Ajuy","zip_code":"5012"},{"phone_area_code":"33","citymun_id":830,"location":"Alimodian","zip_code":"5028"},{"phone_area_code":"33","citymun_id":831,"location":"Anilao","zip_code":"5009"},{"phone_area_code":"33","citymun_id":832,"location":"Badiangan","zip_code":"5033"},{"phone_area_code":"33","citymun_id":833,"location":"Balasan","zip_code":"5018"},{"phone_area_code":"33","citymun_id":834,"location":"Banate","zip_code":"5010"},{"phone_area_code":"33","citymun_id":835,"location":"Barotac Nuevo","zip_code":"5007"},{"phone_area_code":"33","citymun_id":836,"location":"Barotac Viejo","zip_code":"5011"},{"phone_area_code":"33","citymun_id":837,"location":"Batad","zip_code":"5016"},{"phone_area_code":"33","citymun_id":838,"location":"Bingawan","zip_code":"5041"},{"phone_area_code":"33","citymun_id":839,"location":"Cabatuan","zip_code":"5031"},{"phone_area_code":"33","citymun_id":840,"location":"Calinog","zip_code":"5040"},{"phone_area_code":"33","citymun_id":841,"location":"Carles","zip_code":"5019"},{"phone_area_code":"33","citymun_id":842,"location":"Concepcion","zip_code":"5013"},{"phone_area_code":"33","citymun_id":843,"location":"Dingle","zip_code":"5035"},{"phone_area_code":"33","citymun_id":844,"location":"Dueñas","zip_code":"5038"},{"phone_area_code":"33","citymun_id":845,"location":"Dumangas","zip_code":"5006"},{"phone_area_code":"33","citymun_id":846,"location":"Estancia","zip_code":"5017"},{"phone_area_code":"33","citymun_id":847,"location":"Guimbal","zip_code":"5022"},{"phone_area_code":"33","citymun_id":848,"location":"Igbaras","zip_code":"5029"},{"phone_area_code":"33","citymun_id":849,"location":"Iloilo City","zip_code":"5000"},{"phone_area_code":"33","citymun_id":850,"location":"Janiuay","zip_code":"5034"},{"phone_area_code":"33","citymun_id":851,"location":"Lambunao","zip_code":"5042"},{"phone_area_code":"33","citymun_id":852,"location":"Leganes","zip_code":"5003"},{"phone_area_code":"33","citymun_id":853,"location":"Lemery","zip_code":"5043"},{"phone_area_code":"33","citymun_id":854,"location":"Leon","zip_code":"5026"},{"phone_area_code":"33","citymun_id":855,"location":"Maasin","zip_code":"5030"},{"phone_area_code":"33","citymun_id":856,"location":"Miagao","zip_code":"5023"},{"phone_area_code":"33","citymun_id":857,"location":"Mina","zip_code":"5032"},{"phone_area_code":"33","citymun_id":858,"location":"New Lucena","zip_code":"5005"},{"phone_area_code":"33","citymun_id":859,"location":"Oton","zip_code":"5020"},{"phone_area_code":"33","citymun_id":860,"location":"Passi","zip_code":"5037"},{"phone_area_code":"33","citymun_id":861,"location":"Pavia","zip_code":"5001"},{"phone_area_code":"33","citymun_id":862,"location":"Pototan","zip_code":"5008"},{"phone_area_code":"33","citymun_id":863,"location":"San Dionisio","zip_code":"5015"},{"phone_area_code":"33","citymun_id":864,"location":"San Enrique","zip_code":"5036"},{"phone_area_code":"33","citymun_id":865,"location":"San Joaquin","zip_code":"5024"},{"phone_area_code":"33","citymun_id":866,"location":"San Miguel","zip_code":"5025"},{"phone_area_code":"33","citymun_id":867,"location":"San Rafael","zip_code":"5039"},{"phone_area_code":"33","citymun_id":868,"location":"Santa Barbara","zip_code":"5002"},{"phone_area_code":"33","citymun_id":869,"location":"Sara","zip_code":"5014"},{"phone_area_code":"33","citymun_id":870,"location":"Tigbauan","zip_code":"5021"},{"phone_area_code":"33","citymun_id":871,"location":"Tubungan","zip_code":"5027"},{"phone_area_code":"33","citymun_id":872,"location":"Zarraga","zip_code":"5004"}]},{"province_id":14,"data":[{"phone_area_code":"78","citymun_id":255,"location":"Alicia","zip_code":"3306"},{"phone_area_code":"78","citymun_id":256,"location":"Angadanan","zip_code":"3307"},{"phone_area_code":"78","citymun_id":257,"location":"Aurora","zip_code":"3316"},{"phone_area_code":"78","citymun_id":258,"location":"Benito Soliven","zip_code":"3331"},{"phone_area_code":"78","citymun_id":259,"location":"Burgos","zip_code":"3322"},{"phone_area_code":"78","citymun_id":260,"location":"Cabagan","zip_code":"3328"},{"phone_area_code":"78","citymun_id":261,"location":"Cabatuan","zip_code":"3315"},{"phone_area_code":"78","citymun_id":262,"location":"Cauayan","zip_code":"3305"},{"phone_area_code":"78","citymun_id":263,"location":"Cordon","zip_code":"3312"},{"phone_area_code":"78","citymun_id":264,"location":"Delfin Albano","zip_code":"3326"},{"phone_area_code":"78","citymun_id":265,"location":"Dinapigue","zip_code":"3336"},{"phone_area_code":"78","citymun_id":266,"location":"Divilacan","zip_code":"3335"},{"phone_area_code":"78","citymun_id":267,"location":"Echague","zip_code":"3309"},{"phone_area_code":"78","citymun_id":268,"location":"Gamu","zip_code":"3301"},{"phone_area_code":"78","citymun_id":269,"location":"Ilagan","zip_code":"3300"},{"phone_area_code":"78","citymun_id":270,"location":"Jones","zip_code":"3313"},{"phone_area_code":"78","citymun_id":271,"location":"Luna","zip_code":"3304"},{"phone_area_code":"78","citymun_id":272,"location":"Maconacon","zip_code":"3333"},{"phone_area_code":"78","citymun_id":273,"location":"Mallig","zip_code":"3323"},{"phone_area_code":"78","citymun_id":274,"location":"Naguilian","zip_code":"3302"},{"phone_area_code":"78","citymun_id":275,"location":"Palanan","zip_code":"3334"},{"phone_area_code":"78","citymun_id":276,"location":"Quezon","zip_code":"3324"},{"phone_area_code":"78","citymun_id":277,"location":"Quirino","zip_code":"3321"},{"phone_area_code":"78","citymun_id":278,"location":"Ramon","zip_code":"3319"},{"phone_area_code":"78","citymun_id":279,"location":"Reina Mercedes","zip_code":"3303"},{"phone_area_code":"78","citymun_id":280,"location":"Roxas","zip_code":"3320"},{"phone_area_code":"78","citymun_id":281,"location":"San Agustin","zip_code":"3314"},{"phone_area_code":"78","citymun_id":282,"location":"San Guillermo","zip_code":"3308"},{"phone_area_code":"78","citymun_id":283,"location":"San Isidro","zip_code":"3310"},{"phone_area_code":"78","citymun_id":284,"location":"San Manuel","zip_code":"3317"},{"phone_area_code":"78","citymun_id":285,"location":"San Mariano","zip_code":"3332"},{"phone_area_code":"78","citymun_id":286,"location":"San Mateo","zip_code":"3318"},{"phone_area_code":"78","citymun_id":287,"location":"San Pablo","zip_code":"3329"},{"phone_area_code":"78","citymun_id":288,"location":"Santa Maria","zip_code":"3330"},{"phone_area_code":"78","citymun_id":289,"location":"Santiago","zip_code":"3311"},{"phone_area_code":"78","citymun_id":290,"location":"Santo Tomas","zip_code":"3327"},{"phone_area_code":"78","citymun_id":291,"location":"Tumauini","zip_code":"3325"}]},{"province_id":10,"data":[{"phone_area_code":"72","citymun_id":500,"location":"Agoo","zip_code":"2504"},{"phone_area_code":"72","citymun_id":501,"location":"Bacnotan","zip_code":"2503"},{"phone_area_code":"72","citymun_id":502,"location":"Bagulin","zip_code":"2512"},{"phone_area_code":"72","citymun_id":503,"location":"Balaoan","zip_code":"2517"},{"phone_area_code":"72","citymun_id":504,"location":"Bangar","zip_code":"2519"},{"phone_area_code":"72","citymun_id":504,"location":"Bauang","zip_code":"2501"},{"phone_area_code":"72","citymun_id":504,"location":"Burgos","zip_code":"2510"},{"phone_area_code":"72","citymun_id":505,"location":"Caba","zip_code":"2502"},{"phone_area_code":"72","citymun_id":506,"location":"Damortis","zip_code":"2507"},{"phone_area_code":"72","citymun_id":507,"location":"Luna","zip_code":"2518"},{"phone_area_code":"72","citymun_id":508,"location":"Naguillan","zip_code":"2511"},{"phone_area_code":"72","citymun_id":509,"location":"Pugo","zip_code":"2508"},{"phone_area_code":"72","citymun_id":510,"location":"Rosario","zip_code":"2506"},{"phone_area_code":"72","citymun_id":510,"location":"San Fernado","zip_code":"2500"},{"phone_area_code":"72","citymun_id":511,"location":"San Gabriel","zip_code":"2513"},{"phone_area_code":"72","citymun_id":512,"location":"San Juan","zip_code":"2514"},{"phone_area_code":"72","citymun_id":513,"location":"Santol","zip_code":"2516"},{"phone_area_code":"72","citymun_id":514,"location":"Santo Tomas","zip_code":"2505"},{"phone_area_code":"72","citymun_id":515,"location":"Sudepen","zip_code":"2520"},{"phone_area_code":"72","citymun_id":515,"location":"Tubao","zip_code":"2509"}]},{"province_id":26,"data":[{"phone_area_code":"49","citymun_id":500,"location":"Alaminos","zip_code":"4001"},{"phone_area_code":"49","citymun_id":501,"location":"Bay","zip_code":"4033"},{"phone_area_code":"49","citymun_id":502,"location":"Biñan","zip_code":"4024"},{"phone_area_code":"49","citymun_id":503,"location":"Cabuyao","zip_code":"4025"},{"phone_area_code":"49","citymun_id":504,"location":"Calamba","zip_code":"4027"},{"phone_area_code":"49","citymun_id":504,"location":"Canlubang","zip_code":"4028"},{"phone_area_code":"49","citymun_id":504,"location":"Camp Vicente Lim","zip_code":"4029"},{"phone_area_code":"49","citymun_id":505,"location":"Calauan","zip_code":"4012"},{"phone_area_code":"49","citymun_id":506,"location":"Cavinti","zip_code":"4013"},{"phone_area_code":"49","citymun_id":507,"location":"Famy","zip_code":"4021"},{"phone_area_code":"49","citymun_id":508,"location":"Kalayaan","zip_code":"4015"},{"phone_area_code":"49","citymun_id":509,"location":"Liliw","zip_code":"4004"},{"phone_area_code":"49","citymun_id":510,"location":"Los Baños","zip_code":"4030"},{"phone_area_code":"49","citymun_id":510,"location":"College, Los Baños","zip_code":"4031"},{"phone_area_code":"49","citymun_id":511,"location":"Luisiana","zip_code":"4032"},{"phone_area_code":"49","citymun_id":512,"location":"Lumban","zip_code":"4014"},{"phone_area_code":"49","citymun_id":513,"location":"Mabitac","zip_code":"4020"},{"phone_area_code":"49","citymun_id":514,"location":"Magdalena","zip_code":"4007"},{"phone_area_code":"49","citymun_id":515,"location":"Botocan","zip_code":"4006"},{"phone_area_code":"49","citymun_id":515,"location":"Majayjay","zip_code":"4005"},{"phone_area_code":"49","citymun_id":516,"location":"Nagcarlan","zip_code":"4002"},{"phone_area_code":"49","citymun_id":517,"location":"Paete","zip_code":"4016"},{"phone_area_code":"49","citymun_id":518,"location":"Pagsanjan","zip_code":"4008"},{"phone_area_code":"49","citymun_id":519,"location":"Pakil","zip_code":"4017"},{"phone_area_code":"49","citymun_id":520,"location":"Pangil","zip_code":"4018"},{"phone_area_code":"49","citymun_id":521,"location":"Pila","zip_code":"4010"},{"phone_area_code":"49","citymun_id":522,"location":"Rizal","zip_code":"4003"},{"phone_area_code":"2","citymun_id":523,"location":"San Pablo City","zip_code":"4000"},{"phone_area_code":"2","citymun_id":524,"location":"San Pedro","zip_code":"4023"},{"phone_area_code":"49","citymun_id":525,"location":"Santa Cruz","zip_code":"4009"},{"phone_area_code":"49","citymun_id":526,"location":"Santa Maria","zip_code":"4022"},{"phone_area_code":"49","citymun_id":527,"location":"Santa Rosa","zip_code":"4026"},{"phone_area_code":"49","citymun_id":528,"location":"Siniloan","zip_code":"4019"},{"phone_area_code":"49","citymun_id":529,"location":"Victoria","zip_code":"4011"}]},{"province_id":61,"data":[{"phone_area_code":"63","citymun_id":1278,"location":"Bacolod","zip_code":"9205"},{"phone_area_code":"63","citymun_id":1279,"location":"Baloi","zip_code":"9217"},{"phone_area_code":"63","citymun_id":1280,"location":"Baroy","zip_code":"9210"},{"phone_area_code":"63","citymun_id":1281,"location":"Iligan city","zip_code":"9200"},{"phone_area_code":"63","citymun_id":1282,"location":"Kapatagan","zip_code":"9214"},{"phone_area_code":"63","citymun_id":1283,"location":"Kauswagan","zip_code":"9202"},{"phone_area_code":"63","citymun_id":1284,"location":"Kolambugan","zip_code":"9207"},{"phone_area_code":"63","citymun_id":1285,"location":"Lala","zip_code":"9211"},{"phone_area_code":"63","citymun_id":1286,"location":"Linamon","zip_code":"9201"},{"phone_area_code":"63","citymun_id":1287,"location":"Magsaysay","zip_code":"9221"},{"phone_area_code":"63","citymun_id":1288,"location":"Maigo","zip_code":"9206"},{"phone_area_code":"63","citymun_id":1289,"location":"Matungao","zip_code":"9203"},{"phone_area_code":"63","citymun_id":1290,"location":"Munai","zip_code":"9219"},{"phone_area_code":"63","citymun_id":1291,"location":"Nunungan","zip_code":"9216"},{"phone_area_code":"63","citymun_id":1292,"location":"Pantao Ragat","zip_code":"9208"},{"phone_area_code":"63","citymun_id":1293,"location":"Pantar","zip_code":"9218"},{"phone_area_code":"63","citymun_id":1294,"location":"Poona Piagapo","zip_code":"9204"},{"phone_area_code":"63","citymun_id":1295,"location":"Salvador","zip_code":"9212"},{"phone_area_code":"63","citymun_id":1296,"location":"Sapad","zip_code":"9213"},{"phone_area_code":"63","citymun_id":1298,"location":"Tagoloan","zip_code":"9222"},{"phone_area_code":"63","citymun_id":1299,"location":"Tangcal","zip_code":"9220"},{"phone_area_code":"63","citymun_id":1300,"location":"Tubod","zip_code":"9209"},{"phone_area_code":"63","citymun_id":1297,"location":"sultan Naga Dimaporo","zip_code":"9215"}]},{"province_id":79,"data":[{"phone_area_code":"63","citymun_id":1528,"location":"Bacolod Grande","zip_code":"9316"},{"phone_area_code":"63","citymun_id":1529,"location":"Balabagan","zip_code":"9302"},{"phone_area_code":"63","citymun_id":1530,"location":"Balindong","zip_code":"9318"},{"phone_area_code":"63","citymun_id":1531,"location":"Bayang","zip_code":"9309"},{"phone_area_code":"63","citymun_id":1532,"location":"Binidayan","zip_code":"9310"},{"phone_area_code":"63","citymun_id":1535,"location":"Baumbaran","zip_code":"9320"},{"phone_area_code":"63","citymun_id":1536,"location":"Butig","zip_code":"9305"},{"phone_area_code":"63","citymun_id":1536,"location":"Basilan","zip_code":"9305"},{"phone_area_code":"63","citymun_id":1537,"location":"Calanogas","zip_code":"9319"},{"phone_area_code":"63","citymun_id":1539,"location":"Ganassi","zip_code":"9311"},{"phone_area_code":"63","citymun_id":1544,"location":"Lumbatan","zip_code":"9307"},{"phone_area_code":"63","citymun_id":1545,"location":"Lumbayanague","zip_code":"9306"},{"phone_area_code":"63","citymun_id":1540,"location":"Kapai","zip_code":"9709"},{"phone_area_code":"63","citymun_id":1541,"location":"Kapatagan","zip_code":"9700"},{"phone_area_code":"63","citymun_id":1546,"location":"Madalum","zip_code":"9315"},{"phone_area_code":"63","citymun_id":1547,"location":"Madamba","zip_code":"9314"},{"phone_area_code":"63","citymun_id":1548,"location":"Malabang","zip_code":"9300"},{"phone_area_code":"63","citymun_id":1552,"location":"Maragong","zip_code":"9303"},{"phone_area_code":"63","citymun_id":1555,"location":"Pagayawan","zip_code":"9312"},{"phone_area_code":"63","citymun_id":1558,"location":"Pualas","zip_code":"9313"},{"phone_area_code":"63","citymun_id":1560,"location":"Sultan Gumander","zip_code":"9303"},{"phone_area_code":"63","citymun_id":1562,"location":"Tagoloan II","zip_code":"9321"},{"phone_area_code":"63","citymun_id":1565,"location":"Tubaran","zip_code":"9304"},{"phone_area_code":"63","citymun_id":1566,"location":"Tugaya","zip_code":"9317"},{"phone_area_code":"63","citymun_id":1533,"location":"Buadiposo Buntong","zip_code":"9714"},{"phone_area_code":"63","citymun_id":1534,"location":"Bubong","zip_code":"9708"},{"phone_area_code":"63","citymun_id":1540,"location":"Kapai","zip_code":"9709"},{"phone_area_code":"63","citymun_id":1542,"location":"Lumba Bayabao","zip_code":"9703"},{"phone_area_code":"63","citymun_id":1543,"location":"Lumbaca-unayan","zip_code":"9300"},{"phone_area_code":"63","citymun_id":1548,"location":"Maguing","zip_code":"9715"},{"phone_area_code":"63","citymun_id":1550,"location":"Marantao","zip_code":"9711"},{"phone_area_code":"63","citymun_id":1551,"location":"Marawi city","zip_code":"9700"},{"phone_area_code":"63","citymun_id":1553,"location":"Masiu","zip_code":"9706"},{"phone_area_code":"63","citymun_id":1554,"location":"Mulondo","zip_code":"9702"},{"phone_area_code":"63","citymun_id":1556,"location":"Piagapo","zip_code":"9705"},{"phone_area_code":"63","citymun_id":1557,"location":"Poona Bayabao","zip_code":"9705"},{"phone_area_code":"63","citymun_id":1538,"location":"Ramain-Ditsaan","zip_code":"9713"},{"phone_area_code":"63","citymun_id":1559,"location":"Saguiaran","zip_code":"9701"},{"phone_area_code":"63","citymun_id":1563,"location":"Tamparan","zip_code":"9704"},{"phone_area_code":"63","citymun_id":1564,"location":"Taraka","zip_code":"9713"},{"phone_area_code":"63","citymun_id":1567,"location":"Wao","zip_code":"9716"}]},{"province_id":1,"data":[{"phone_area_code":"2","citymun_id":2,"location":"Almazan","zip_code":"1750"},{"phone_area_code":"2","citymun_id":2,"location":"Angela Village","zip_code":"1749"},{"phone_area_code":"2","citymun_id":2,"location":"Cut-cut","zip_code":"1743"},{"phone_area_code":"2","citymun_id":2,"location":"Gatchalian Subd.","zip_code":"1745"},{"phone_area_code":"2","citymun_id":2,"location":"Las Pinas CPO","zip_code":"1740"},{"phone_area_code":"2","citymun_id":2,"location":"Manila Doctor's Village","zip_code":"1748"},{"phone_area_code":"2","citymun_id":2,"location":"Manuyo","zip_code":"1744"},{"phone_area_code":"2","citymun_id":2,"location":"Remarville Subd.","zip_code":"1741"},{"phone_area_code":"2","citymun_id":2,"location":"Soldiers Hills Subd.","zip_code":"1752"},{"phone_area_code":"2","citymun_id":2,"location":"Talon Moonwalk","zip_code":"1747"},{"phone_area_code":"2","citymun_id":2,"location":"T. S. Cruz Subd.","zip_code":"1751"},{"phone_area_code":"2","citymun_id":2,"location":"Verdant Acres Subd.","zip_code":"1746"},{"phone_area_code":"2","citymun_id":2,"location":"Pulang Lupa & Zapote","zip_code":"1742"},{"phone_area_code":"2","citymun_id":2,"location":"Pulang Lupa","zip_code":"1742"}]},{"province_id":52,"data":[{"phone_area_code":"53","citymun_id":1068,"location":"Abuyog","zip_code":"6510"},{"phone_area_code":"53","citymun_id":1069,"location":"Alangalang","zip_code":"6517"},{"phone_area_code":"53","citymun_id":1070,"location":"Albuera","zip_code":"6542"},{"phone_area_code":"53","citymun_id":1071,"location":"Babatngon","zip_code":"6520"},{"phone_area_code":"53","citymun_id":1072,"location":"Barugo","zip_code":"6519"},{"phone_area_code":"53","citymun_id":1073,"location":"Bato","zip_code":"6525"},{"phone_area_code":"53","citymun_id":1074,"location":"Baybay","zip_code":"6521"},{"phone_area_code":"53","citymun_id":1075,"location":"Burauen","zip_code":"6516"},{"phone_area_code":"53","citymun_id":1076,"location":"Calubian","zip_code":"6534"},{"phone_area_code":"53","citymun_id":1077,"location":"Capoocan","zip_code":"6530"},{"phone_area_code":"53","citymun_id":1078,"location":"Carigara","zip_code":"6529"},{"phone_area_code":"53","citymun_id":1079,"location":"Dagami","zip_code":"6515"},{"phone_area_code":"53","citymun_id":1080,"location":"Dulag","zip_code":"6505"},{"phone_area_code":"53","citymun_id":1081,"location":"Hilongos","zip_code":"6524"},{"phone_area_code":"53","citymun_id":1082,"location":"Hindang","zip_code":"6523"},{"phone_area_code":"53","citymun_id":1083,"location":"Inopacan","zip_code":"6522"},{"phone_area_code":"53","citymun_id":1084,"location":"Isabel","zip_code":"6539"},{"phone_area_code":"53","citymun_id":1085,"location":"Jaro","zip_code":"6527"},{"phone_area_code":"53","citymun_id":1086,"location":"Javier","zip_code":"6511"},{"phone_area_code":"53","citymun_id":1087,"location":"Julita","zip_code":"6506"},{"phone_area_code":"53","citymun_id":1088,"location":"Kananga","zip_code":"6531"},{"phone_area_code":"53","citymun_id":1089,"location":"La Paz","zip_code":"6508"},{"phone_area_code":"53","citymun_id":1090,"location":"Leyte","zip_code":"6533"},{"phone_area_code":"53","citymun_id":1091,"location":"MacArthur","zip_code":"6509"},{"phone_area_code":"53","citymun_id":1092,"location":"Mahaplag","zip_code":"6512"},{"phone_area_code":"53","citymun_id":1093,"location":"Matag-ob","zip_code":"6532"},{"phone_area_code":"53","citymun_id":1094,"location":"Matalom","zip_code":"6526"},{"phone_area_code":"53","citymun_id":1095,"location":"Mayorga","zip_code":"6507"},{"phone_area_code":"53","citymun_id":1096,"location":"Merida","zip_code":"6540"},{"phone_area_code":"53","citymun_id":1097,"location":"Ormoc City","zip_code":"6541"},{"phone_area_code":"53","citymun_id":1098,"location":"Palo","zip_code":"6501"},{"phone_area_code":"53","citymun_id":1099,"location":"Palumpon","zip_code":"6538"},{"phone_area_code":"53","citymun_id":1100,"location":"Pastrana","zip_code":"6514"},{"phone_area_code":"53","citymun_id":1101,"location":"San Isidro","zip_code":"6535"},{"phone_area_code":"53","citymun_id":1102,"location":"San Miguel","zip_code":"6518"},{"phone_area_code":"53","citymun_id":1103,"location":"Santa Fe","zip_code":"6513"},{"phone_area_code":"53","citymun_id":1104,"location":"Tabango","zip_code":"6536"},{"phone_area_code":"53","citymun_id":1105,"location":"Tabontabon","zip_code":"6534"},{"phone_area_code":"53","citymun_id":1106,"location":"Tacloban City","zip_code":"6500"},{"phone_area_code":"53","citymun_id":1107,"location":"Tanauan","zip_code":"6502"},{"phone_area_code":"53","citymun_id":1108,"location":"Tolosa","zip_code":"6503"},{"phone_area_code":"53","citymun_id":1109,"location":"Tunga","zip_code":"6528"},{"phone_area_code":"53","citymun_id":1110,"location":"Villaba","zip_code":"6537"}]},{"province_id":80,"data":[{"phone_area_code":"64","citymun_id":1568,"location":"Ampatuan","zip_code":"9609"},{"phone_area_code":"64","citymun_id":1569,"location":"Barira","zip_code":"9614"},{"phone_area_code":"64","citymun_id":1570,"location":"Buldon","zip_code":"9615"},{"phone_area_code":"64","citymun_id":1571,"location":"Buluan","zip_code":"9616"},{"phone_area_code":"64","citymun_id":1572,"location":"Cotabato","zip_code":"9600"},{"phone_area_code":"64","citymun_id":1573,"location":"Datu Abdulah Sangki","zip_code":"9609"},{"phone_area_code":"64","citymun_id":1574,"location":"Datu Anggal midtimbang","zip_code":"9612"},{"phone_area_code":"64","citymun_id":1575,"location":"Datu Blah T. Sinsuat","zip_code":"9600"},{"phone_area_code":"64","citymun_id":1576,"location":"Datu Hoffer Ampatuan","zip_code":"9600"},{"phone_area_code":"64","citymun_id":1577,"location":"Datu Montawal","zip_code":"9610"},{"phone_area_code":"64","citymun_id":1578,"location":"Datu odin Sinsuat","zip_code":"9601"},{"phone_area_code":"64","citymun_id":1579,"location":"Datu Paglas","zip_code":"9617"},{"phone_area_code":"64","citymun_id":1580,"location":"Datu Piang","zip_code":"9607"},{"phone_area_code":"64","citymun_id":1581,"location":"Datu Salibo","zip_code":"9607"},{"phone_area_code":"64","citymun_id":1582,"location":"Datu Saudi-Ampatuan","zip_code":"9607"},{"phone_area_code":"64","citymun_id":1583,"location":"Datu Unsay","zip_code":"9608"},{"phone_area_code":"64","citymun_id":1584,"location":"General Salipada K. Pendatun","zip_code":"9618"},{"phone_area_code":"64","citymun_id":1585,"location":"Guindulungan","zip_code":"9612"},{"phone_area_code":"64","citymun_id":1586,"location":"Kabuntulan","zip_code":"9606"},{"phone_area_code":"64","citymun_id":1587,"location":"Mamasapano","zip_code":"9608"},{"phone_area_code":"64","citymun_id":1588,"location":"Mangudadatu","zip_code":"9616"},{"phone_area_code":"64","citymun_id":1589,"location":"Matanog","zip_code":"9613"},{"phone_area_code":"64","citymun_id":1590,"location":"Northern Kabuntalan","zip_code":"9606"},{"phone_area_code":"64","citymun_id":1591,"location":"Pagalungan","zip_code":"9610"},{"phone_area_code":"64","citymun_id":1592,"location":"Paglat","zip_code":"9618"},{"phone_area_code":"64","citymun_id":1593,"location":"Pandag","zip_code":"9626"},{"phone_area_code":"64","citymun_id":1594,"location":"Parang","zip_code":"9604"},{"phone_area_code":"64","citymun_id":1595,"location":"Rajah Buayan","zip_code":"9611"},{"phone_area_code":"64","citymun_id":1596,"location":"Shariff Aguak","zip_code":"9608"},{"phone_area_code":"64","citymun_id":1597,"location":"Shariff Saydona Mustapha","zip_code":"9619"},{"phone_area_code":"64","citymun_id":1598,"location":"South Upi","zip_code":"9603"},{"phone_area_code":"64","citymun_id":1599,"location":"Sultan Kudarat","zip_code":"9605"},{"phone_area_code":"64","citymun_id":1600,"location":"Sultan Mastura","zip_code":"9605"},{"phone_area_code":"64","citymun_id":1601,"location":"Sultan Sa Barongis","zip_code":"9611"},{"phone_area_code":"64","citymun_id":1602,"location":"Sultan Sumagka","zip_code":"9612"},{"phone_area_code":"64","citymun_id":1603,"location":"Talayan","zip_code":"9612"},{"phone_area_code":"64","citymun_id":1604,"location":"Upi","zip_code":"9602"}]},{"province_id":1,"data":[{"phone_area_code":"2","citymun_id":3,"location":"Ayala-Paseo de Roxas","zip_code":"1226"},{"phone_area_code":"2","citymun_id":3,"location":"Bangkal","zip_code":"1233"},{"phone_area_code":"2","citymun_id":3,"location":"Bel-air","zip_code":"1209"},{"phone_area_code":"2","citymun_id":3,"location":"Cembo","zip_code":"1214"},{"phone_area_code":"2","citymun_id":3,"location":"Comembo","zip_code":"1217"},{"phone_area_code":"2","citymun_id":3,"location":"Dasmarinas Village North","zip_code":"1221"},{"phone_area_code":"2","citymun_id":3,"location":"Dasmarinas Village South","zip_code":"1222"},{"phone_area_code":"2","citymun_id":3,"location":"Forbes Park North","zip_code":"1219"},{"phone_area_code":"2","citymun_id":3,"location":"Forbes Park South","zip_code":"1220"},{"phone_area_code":"2","citymun_id":3,"location":"Fort Bonifacio Naval Stn","zip_code":"1202"},{"phone_area_code":"2","citymun_id":3,"location":"Fort Bonifacio (Camp)","zip_code":"1201"},{"phone_area_code":"2","citymun_id":3,"location":"Greenbelt","zip_code":"1228"},{"phone_area_code":"2","citymun_id":3,"location":"Guadalupe Nuevo","zip_code":"1212"},{"phone_area_code":"2","citymun_id":3,"location":"Guadalupe Viejo","zip_code":"1211"},{"phone_area_code":"2","citymun_id":3,"location":"Kasilawan","zip_code":"1206"},{"phone_area_code":"2","citymun_id":3,"location":"La Paz-Singkamas-Tejeros","zip_code":"1204"},{"phone_area_code":"2","citymun_id":3,"location":"Legaspi Village","zip_code":"1229"},{"phone_area_code":"2","citymun_id":3,"location":"Magallanes Village","zip_code":"1232"},{"phone_area_code":"2","citymun_id":3,"location":"Makati Commercial Ctr.","zip_code":"1224"},{"phone_area_code":"2","citymun_id":3,"location":"Makati CPO + Buendia Ave.","zip_code":"1200"},{"phone_area_code":"2","citymun_id":3,"location":"Olympia & Carmona","zip_code":"1207"},{"phone_area_code":"2","citymun_id":3,"location":"Palanan","zip_code":"1235"},{"phone_area_code":"2","citymun_id":3,"location":"Pasong Tamo & Ecology Vill","zip_code":"1231"},{"phone_area_code":"2","citymun_id":3,"location":"Pembo","zip_code":"1218"},{"phone_area_code":"2","citymun_id":3,"location":"Pinagkaisahan-Pitogo","zip_code":"1213"},{"phone_area_code":"2","citymun_id":3,"location":"Pio Del Pilar","zip_code":"1230"},{"phone_area_code":"2","citymun_id":3,"location":"Poblacion","zip_code":"1210"},{"phone_area_code":"2","citymun_id":3,"location":"Rembo (East)","zip_code":"1216"},{"phone_area_code":"2","citymun_id":3,"location":"Rembo (West)","zip_code":"1215"},{"phone_area_code":"2","citymun_id":3,"location":"Salcedo Village","zip_code":"1227"},{"phone_area_code":"2","citymun_id":3,"location":"San Antonio Village","zip_code":"1203"},{"phone_area_code":"2","citymun_id":3,"location":"San Isidro","zip_code":"1234"},{"phone_area_code":"2","citymun_id":3,"location":"San Lorenzo Village","zip_code":"1223"},{"phone_area_code":"2","citymun_id":3,"location":"Sta. Cruz","zip_code":"1205"},{"phone_area_code":"2","citymun_id":3,"location":"Urdaneta Village","zip_code":"1225"},{"phone_area_code":"2","citymun_id":3,"location":"Valenzuela,Santiago,Rizal","zip_code":"1208"}]},{"province_id":1,"data":[{"phone_area_code":"2","citymun_id":4,"location":"Acacia","zip_code":"1474"},{"phone_area_code":"2","citymun_id":4,"location":"Araneta Subdivision","zip_code":"1476"},{"phone_area_code":"2","citymun_id":4,"location":"Dampalit","zip_code":"1480"},{"phone_area_code":"2","citymun_id":4,"location":"Flores","zip_code":"1471"},{"phone_area_code":"2","citymun_id":4,"location":"Kaunlaran Village","zip_code":"1409"},{"phone_area_code":"2","citymun_id":4,"location":"Longos","zip_code":"1472"},{"phone_area_code":"2","citymun_id":4,"location":"Malabon","zip_code":"1470"},{"phone_area_code":"2","citymun_id":4,"location":"Maysilo","zip_code":"1477"},{"phone_area_code":"2","citymun_id":4,"location":"Muzon","zip_code":"1479"},{"phone_area_code":"2","citymun_id":4,"location":"Potrero","zip_code":"1475"},{"phone_area_code":"2","citymun_id":4,"location":"Santolan","zip_code":"1478"},{"phone_area_code":"2","citymun_id":4,"location":"Tonsuya","zip_code":"1473"}]},{"province_id":1,"data":[{"phone_area_code":"2","citymun_id":5,"location":"East Edsa","zip_code":"1554"},{"phone_area_code":"2","citymun_id":5,"location":"Greenhills South","zip_code":"1556"},{"phone_area_code":"2","citymun_id":5,"location":"Mandaluyong CPO","zip_code":"1550"},{"phone_area_code":"2","citymun_id":5,"location":"National Center for Mental Health (mental Hispital)","zip_code":"1553"},{"phone_area_code":"2","citymun_id":5,"location":"Shaw Boulevard","zip_code":"1552"},{"phone_area_code":"2","citymun_id":5,"location":"Vergara","zip_code":"1551"},{"phone_area_code":"2","citymun_id":5,"location":"Wack Wack Golf Club","zip_code":"1555"}]},{"province_id":1,"data":[{"phone_area_code":"2","citymun_id":6,"location":"Binondo","zip_code":"1006"},{"phone_area_code":"2","citymun_id":6,"location":"Intramuros","zip_code":"1002"},{"phone_area_code":"2","citymun_id":6,"location":"Malate","zip_code":"1004"},{"phone_area_code":"2","citymun_id":6,"location":"Manila CPO - Ermita","zip_code":"1000"},{"phone_area_code":"2","citymun_id":6,"location":"Paco","zip_code":"1007"},{"phone_area_code":"2","citymun_id":6,"location":"Pandacan","zip_code":"1011"},{"phone_area_code":"2","citymun_id":6,"location":"Port Area South","zip_code":"1018"},{"phone_area_code":"2","citymun_id":6,"location":"Quiapo","zip_code":"1001"},{"phone_area_code":"2","citymun_id":6,"location":"Sampaloc East","zip_code":"1008"},{"phone_area_code":"2","citymun_id":6,"location":"Sampaloc West","zip_code":"1015"},{"phone_area_code":"2","citymun_id":6,"location":"San Andres Bukid","zip_code":"1017"},{"phone_area_code":"2","citymun_id":6,"location":"San Miguel","zip_code":"1005"},{"phone_area_code":"2","citymun_id":6,"location":"San Nicolas","zip_code":"1010"},{"phone_area_code":"2","citymun_id":6,"location":"Sta. Ana","zip_code":"1009"},{"phone_area_code":"2","citymun_id":6,"location":"Sta. Cruz North","zip_code":"1004"},{"phone_area_code":"2","citymun_id":6,"location":"Sta. Cruz South","zip_code":"1003"},{"phone_area_code":"2","citymun_id":6,"location":"Sta. Mesa","zip_code":"1016"},{"phone_area_code":"2","citymun_id":6,"location":"Tondo North","zip_code":"1013"},{"phone_area_code":"2","citymun_id":6,"location":"Tondo South","zip_code":"1012"}]},{"province_id":1,"data":[{"phone_area_code":"2","citymun_id":7,"location":"Bagong Nayon","zip_code":"1820"},{"phone_area_code":"2","citymun_id":7,"location":"Barangka","zip_code":"1803"},{"phone_area_code":"2","citymun_id":7,"location":"Cogeo","zip_code":"1820"},{"phone_area_code":"2","citymun_id":7,"location":"Conception 1","zip_code":"1807"},{"phone_area_code":"2","citymun_id":7,"location":"Conception 2","zip_code":"1811"},{"phone_area_code":"2","citymun_id":7,"location":"Cupang","zip_code":"1820"},{"phone_area_code":"2","citymun_id":7,"location":"Industrial Valley","zip_code":"1802"},{"phone_area_code":"2","citymun_id":7,"location":"J de la Pena","zip_code":"1804"},{"phone_area_code":"2","citymun_id":7,"location":"Langhaya","zip_code":"1820"},{"phone_area_code":"2","citymun_id":7,"location":"Malanday","zip_code":"1805"},{"phone_area_code":"2","citymun_id":7,"location":"Mambagat","zip_code":"1820"},{"phone_area_code":"2","citymun_id":7,"location":"Marikina CPO","zip_code":"1800"},{"phone_area_code":"2","citymun_id":7,"location":"Marikina Heights","zip_code":"1810"},{"phone_area_code":"2","citymun_id":7,"location":"Mayamot","zip_code":"1820"},{"phone_area_code":"2","citymun_id":7,"location":"Nangka","zip_code":"1808"},{"phone_area_code":"2","citymun_id":7,"location":"North/West of Marikina River","zip_code":"1806"},{"phone_area_code":"2","citymun_id":7,"location":"Parang","zip_code":"1809"},{"phone_area_code":"2","citymun_id":7,"location":"San Roque-Calumpang","zip_code":"1801"},{"phone_area_code":"2","citymun_id":7,"location":"Tanong","zip_code":"1803"}]},{"province_id":29,"data":[{"phone_area_code":"42","citymun_id":585,"location":"Boac","zip_code":"4900"},{"phone_area_code":"42","citymun_id":586,"location":"Buenavista","zip_code":"4904"},{"phone_area_code":"42","citymun_id":587,"location":"Gasan","zip_code":"4905"},{"phone_area_code":"42","citymun_id":588,"location":"Mogpog","zip_code":"4901"},{"phone_area_code":"42","citymun_id":589,"location":"Santa Cruz","zip_code":"4902"},{"phone_area_code":"42","citymun_id":590,"location":"Torrijos","zip_code":"4903"}]},{"province_id":38,"data":[{"phone_area_code":"56","citymun_id":736,"location":"Aroroy","zip_code":"5414"},{"phone_area_code":"56","citymun_id":737,"location":"Baleno","zip_code":"5413"},{"phone_area_code":"56","citymun_id":738,"location":"Balud","zip_code":"5412"},{"phone_area_code":"56","citymun_id":739,"location":"Batuan","zip_code":"5415"},{"phone_area_code":"56","citymun_id":740,"location":"Cataingan","zip_code":"5405"},{"phone_area_code":"56","citymun_id":741,"location":"Cawayan","zip_code":"5405"},{"phone_area_code":"56","citymun_id":742,"location":"Claveria","zip_code":"5419"},{"phone_area_code":"56","citymun_id":743,"location":"Dimasalang","zip_code":"5403"},{"phone_area_code":"56","citymun_id":744,"location":"Esperanza","zip_code":"5407"},{"phone_area_code":"56","citymun_id":745,"location":"Mandaon","zip_code":"5411"},{"phone_area_code":"56","citymun_id":746,"location":"Masbate","zip_code":"5400"},{"phone_area_code":"56","citymun_id":747,"location":"Milagros","zip_code":"5410"},{"phone_area_code":"56","citymun_id":748,"location":"Mobo","zip_code":"5401"},{"phone_area_code":"56","citymun_id":749,"location":"Montreal","zip_code":"5418"},{"phone_area_code":"56","citymun_id":750,"location":"Palanas","zip_code":"5404"},{"phone_area_code":"56","citymun_id":751,"location":"Pio V. Corpuz","zip_code":"5406"},{"phone_area_code":"56","citymun_id":752,"location":"Placer","zip_code":"5408"},{"phone_area_code":"56","citymun_id":753,"location":"San Fernando","zip_code":"5416"},{"phone_area_code":"56","citymun_id":754,"location":"San Jacinto","zip_code":"5417"},{"phone_area_code":"56","citymun_id":755,"location":"San Pascual","zip_code":"5420"},{"phone_area_code":"56","citymun_id":756,"location":"Uson","zip_code":"5402"}]},{"province_id":30,"data":[{"phone_area_code":"43","citymun_id":591,"location":"Abra de Ilog","zip_code":"5108"},{"phone_area_code":"43","citymun_id":592,"location":"Calintaan","zip_code":"5102"},{"phone_area_code":"43","citymun_id":593,"location":"Looc","zip_code":"5111"},{"phone_area_code":"43","citymun_id":594,"location":"Lubang","zip_code":"5109"},{"phone_area_code":"43","citymun_id":595,"location":"Magsaysay","zip_code":"5101"},{"phone_area_code":"43","citymun_id":596,"location":"Mamburao","zip_code":"5106"},{"phone_area_code":"43","citymun_id":597,"location":"Paluan","zip_code":"5107"},{"phone_area_code":"43","citymun_id":598,"location":"Rizal","zip_code":"5103"},{"phone_area_code":"43","citymun_id":599,"location":"Sablayan","zip_code":"5104"},{"phone_area_code":"43","citymun_id":600,"location":"San Jose","zip_code":"5100"},{"phone_area_code":"43","citymun_id":601,"location":"Santa Cruz","zip_code":"5105"}]},{"province_id":31,"data":[{"phone_area_code":"43","citymun_id":602,"location":"Baco","zip_code":"5201"},{"phone_area_code":"43","citymun_id":603,"location":"Bansud","zip_code":"5210"},{"phone_area_code":"43","citymun_id":604,"location":"Bangabong","zip_code":"5211"},{"phone_area_code":"43","citymun_id":605,"location":"Bulalacao","zip_code":"5214"},{"phone_area_code":"43","citymun_id":606,"location":"Calapan","zip_code":"5200"},{"phone_area_code":"43","citymun_id":607,"location":"Gloria","zip_code":"5209"},{"phone_area_code":"43","citymun_id":608,"location":"Mansalay","zip_code":"5208"},{"phone_area_code":"43","citymun_id":611,"location":"Pola","zip_code":"5206"},{"phone_area_code":"43","citymun_id":612,"location":"Puerto Galera","zip_code":"5203"},{"phone_area_code":"43","citymun_id":613,"location":"Roxas","zip_code":"5212"},{"phone_area_code":"43","citymun_id":614,"location":"San Teodoro","zip_code":"5202"},{"phone_area_code":"43","citymun_id":616,"location":"Victoria","zip_code":"5205"},{"phone_area_code":"43","citymun_id":609,"location":"Naujan","zip_code":"5204"},{"phone_area_code":"43","citymun_id":610,"location":"Pinamalayan","zip_code":"5208"}]},{"province_id":62,"data":[{"phone_area_code":"88","citymun_id":1301,"location":"Aloran","zip_code":"7206"},{"phone_area_code":"88","citymun_id":1302,"location":"Baliangao","zip_code":"7211"},{"phone_area_code":"88","citymun_id":1303,"location":"Bonifacio","zip_code":"7215"},{"phone_area_code":"88","citymun_id":1304,"location":"Calamba","zip_code":"7210"},{"phone_area_code":"88","citymun_id":1305,"location":"Clarin","zip_code":"7201"},{"phone_area_code":"88","citymun_id":1306,"location":"Concepcion","zip_code":"7213"},{"phone_area_code":"88","citymun_id":1308,"location":"Jimenez","zip_code":"5208"},{"phone_area_code":"88","citymun_id":1309,"location":"Lopez Jaena","zip_code":"7208"},{"phone_area_code":"88","citymun_id":1310,"location":"Oroquieta City","zip_code":"7207"},{"phone_area_code":"88","citymun_id":1311,"location":"Ozamis City","zip_code":"7200"},{"phone_area_code":"88","citymun_id":1312,"location":"Panaon","zip_code":"7205"},{"phone_area_code":"88","citymun_id":1313,"location":"Plaridel","zip_code":"7209"},{"phone_area_code":"88","citymun_id":1314,"location":"Sapang Dalaga","zip_code":"7212"},{"phone_area_code":"88","citymun_id":1315,"location":"Sinacaban","zip_code":"7203"},{"phone_area_code":"88","citymun_id":1316,"location":"Tangub City","zip_code":"7214"},{"phone_area_code":"88","citymun_id":1317,"location":"Tudela","zip_code":"7202"}]},{"province_id":63,"data":[{"phone_area_code":"88","citymun_id":1318,"location":"Alubijid","zip_code":"9018"},{"phone_area_code":"88","citymun_id":1319,"location":"Balingasag","zip_code":"9005"},{"phone_area_code":"88","citymun_id":1320,"location":"Balinguan","zip_code":"9011"},{"phone_area_code":"88","citymun_id":1322,"location":"Cagayan de Oro City","zip_code":"9000"},{"phone_area_code":"88","citymun_id":1323,"location":"Claveria","zip_code":"9004"},{"phone_area_code":"88","citymun_id":1324,"location":"El Salvador","zip_code":"9017"},{"phone_area_code":"88","citymun_id":1325,"location":"Gingoog City","zip_code":"9014"},{"phone_area_code":"88","citymun_id":1326,"location":"Gitaum","zip_code":"9020"},{"phone_area_code":"88","citymun_id":1327,"location":"Initao","zip_code":"9022"},{"phone_area_code":"88","citymun_id":1328,"location":"Jasaan","zip_code":"9003"},{"phone_area_code":"88","citymun_id":1329,"location":"Kinogitan","zip_code":"9010"},{"phone_area_code":"88","citymun_id":1330,"location":"Lagonglong","zip_code":"9006"},{"phone_area_code":"88","citymun_id":1331,"location":"Laguindingan","zip_code":"9019"},{"phone_area_code":"88","citymun_id":1332,"location":"Libertad","zip_code":"9021"},{"phone_area_code":"88","citymun_id":1333,"location":"Lugait","zip_code":"9025"},{"phone_area_code":"88","citymun_id":1334,"location":"Magsaysay","zip_code":"9015"},{"phone_area_code":"88","citymun_id":1335,"location":"Manticao","zip_code":"9024"},{"phone_area_code":"88","citymun_id":1336,"location":"Medina","zip_code":"9013"},{"phone_area_code":"88","citymun_id":1337,"location":"Naawan","zip_code":"9023"},{"phone_area_code":"88","citymun_id":1338,"location":"Opol","zip_code":"9016"},{"phone_area_code":"88","citymun_id":1339,"location":"Salay","zip_code":"9007"},{"phone_area_code":"88","citymun_id":1340,"location":"Sugbongcogon","zip_code":"9009"},{"phone_area_code":"88","citymun_id":1341,"location":"Tagoloan","zip_code":"9001"},{"phone_area_code":"88","citymun_id":1342,"location":"Talisayan","zip_code":"9012"},{"phone_area_code":"88","citymun_id":1343,"location":"Villanueva","zip_code":"9002"}]},{"province_id":7,"data":[{"phone_area_code":"74","citymun_id":85,"location":"Barlig","zip_code":"2623"},{"phone_area_code":"74","citymun_id":86,"location":"Bauko","zip_code":"2621"},{"phone_area_code":"74","citymun_id":87,"location":"Besao","zip_code":"2618"},{"phone_area_code":"74","citymun_id":88,"location":"Bontoc","zip_code":"2616"},{"phone_area_code":"74","citymun_id":89,"location":"Natonin","zip_code":"2624"},{"phone_area_code":"74","citymun_id":90,"location":"Paracelis","zip_code":"2625"},{"phone_area_code":"74","citymun_id":91,"location":"Sabangan","zip_code":"2622"},{"phone_area_code":"74","citymun_id":92,"location":"Sadanga","zip_code":"2617"},{"phone_area_code":"74","citymun_id":93,"location":"Sagada","zip_code":"2619"},{"phone_area_code":"74","citymun_id":94,"location":"Tadian","zip_code":"2620"}]},{"province_id":1,"data":[{"phone_area_code":"2","citymun_id":8,"location":"Ayala Alabang Subd.","zip_code":"1780"},{"phone_area_code":"2","citymun_id":8,"location":"Bayanan/Putatan","zip_code":"1772"},{"phone_area_code":"2","citymun_id":8,"location":"Bule/Cupang","zip_code":"1771"},{"phone_area_code":"2","citymun_id":8,"location":"Filnvest Corporate City","zip_code":"1781"},{"phone_area_code":"2","citymun_id":8,"location":"Muntinlupa CPO","zip_code":"1770"},{"phone_area_code":"2","citymun_id":8,"location":"Pearl Heights","zip_code":"1775"},{"phone_area_code":"2","citymun_id":8,"location":"Pleasant Village","zip_code":"1777"},{"phone_area_code":"2","citymun_id":8,"location":"Poblacion","zip_code":"1776"},{"phone_area_code":"2","citymun_id":8,"location":"Susana Heights","zip_code":"1774"},{"phone_area_code":"2","citymun_id":8,"location":"Tunasan","zip_code":"1773"},{"phone_area_code":"2","citymun_id":8,"location":"Ayala Alabang P.O Boxes","zip_code":"1799"}]},{"province_id":1,"data":[{"phone_area_code":"2","citymun_id":9,"location":"Fish Market","zip_code":"1411"},{"phone_area_code":"2","citymun_id":9,"location":"Isla de Cocomo","zip_code":"1412"},{"phone_area_code":"2","citymun_id":9,"location":"Kapitbahayan East","zip_code":"1413"},{"phone_area_code":"2","citymun_id":9,"location":"Kaunlaran Village","zip_code":"1409"},{"phone_area_code":"2","citymun_id":9,"location":"Navotas","zip_code":"1485"},{"phone_area_code":"2","citymun_id":9,"location":"Tangos","zip_code":"1489"},{"phone_area_code":"2","citymun_id":9,"location":"tanza","zip_code":"1490"}]},{"province_id":45,"data":[{"phone_area_code":"34","citymun_id":873,"location":"Bacolod City","zip_code":"6100"},{"phone_area_code":"34","citymun_id":874,"location":"Bago City","zip_code":"6101"},{"phone_area_code":"34","citymun_id":875,"location":"Binalbagan","zip_code":"6107"},{"phone_area_code":"34","citymun_id":876,"location":"Cadiz City","zip_code":"6121"},{"phone_area_code":"34","citymun_id":877,"location":"Calatrava","zip_code":"6126"},{"phone_area_code":"34","citymun_id":878,"location":"Candoni","zip_code":"6110"},{"phone_area_code":"34","citymun_id":880,"location":"Enrique Magalona","zip_code":"6118"},{"phone_area_code":"34","citymun_id":881,"location":"Escalante","zip_code":"6124"},{"phone_area_code":"34","citymun_id":882,"location":"Himamaylan","zip_code":"6108"},{"phone_area_code":"34","citymun_id":883,"location":"Hinigaran","zip_code":"6106"},{"phone_area_code":"34","citymun_id":884,"location":"Hinoba-an","zip_code":"6114"},{"phone_area_code":"34","citymun_id":885,"location":"Ilog","zip_code":"6109"},{"phone_area_code":"34","citymun_id":886,"location":"Isabela","zip_code":"6128"},{"phone_area_code":"34","citymun_id":887,"location":"Kabankalan","zip_code":"6100"},{"phone_area_code":"34","citymun_id":879,"location":"Cauayan","zip_code":"6112"},{"phone_area_code":"34","citymun_id":888,"location":"La Carlota City","zip_code":"6130"},{"phone_area_code":"34","citymun_id":889,"location":"La Castellana","zip_code":"6131"},{"phone_area_code":"34","citymun_id":890,"location":"Manapla","zip_code":"6120"},{"phone_area_code":"34","citymun_id":891,"location":"Moises Padilla","zip_code":"6132"},{"phone_area_code":"34","citymun_id":892,"location":"Murcia","zip_code":"6129"},{"phone_area_code":"34","citymun_id":894,"location":"Pulupandan","zip_code":"6102"},{"phone_area_code":"34","citymun_id":893,"location":"Pontevedra","zip_code":"6105"},{"phone_area_code":"34","citymun_id":895,"location":"Sagay","zip_code":"6122"},{"phone_area_code":"34","citymun_id":897,"location":"San Carlos City","zip_code":"6127"},{"phone_area_code":"34","citymun_id":898,"location":"San Enrique","zip_code":"6104"},{"phone_area_code":"34","citymun_id":899,"location":"Silay City","zip_code":"6116"},{"phone_area_code":"34","citymun_id":900,"location":"Sipalay","zip_code":"6113"},{"phone_area_code":"34","citymun_id":901,"location":"Talisay","zip_code":"6115"},{"phone_area_code":"34","citymun_id":902,"location":"Toboso","zip_code":"6125"},{"phone_area_code":"34","citymun_id":903,"location":"Villadolid","zip_code":"6103"},{"phone_area_code":"34","citymun_id":529,"location":"Victorias","zip_code":"6119"}]},{"province_id":48,"data":[{"phone_area_code":"35","citymun_id":1006,"location":"Amian","zip_code":"6203"},{"phone_area_code":"35","citymun_id":1007,"location":"Ayungon","zip_code":"6210"},{"phone_area_code":"35","citymun_id":1008,"location":"Bacung","zip_code":"6216"},{"phone_area_code":"35","citymun_id":1009,"location":"Bais City","zip_code":"6206"},{"phone_area_code":"35","citymun_id":1010,"location":"Basay","zip_code":"6222"},{"phone_area_code":"35","citymun_id":1011,"location":"Bayawan","zip_code":"6221"},{"phone_area_code":"35","citymun_id":1012,"location":"Bindoy","zip_code":"6209"},{"phone_area_code":"35","citymun_id":1013,"location":"Canlaon City","zip_code":"6223"},{"phone_area_code":"35","citymun_id":1014,"location":"Dauin","zip_code":"6217"},{"phone_area_code":"35","citymun_id":1015,"location":"Dumaguete City","zip_code":"6200"},{"phone_area_code":"35","citymun_id":1016,"location":"Guihulngan","zip_code":"6214"},{"phone_area_code":"35","citymun_id":1017,"location":"Jimalalud","zip_code":"6212"},{"phone_area_code":"35","citymun_id":1018,"location":"La Libertad","zip_code":"6213"},{"phone_area_code":"35","citymun_id":1019,"location":"Mabinay","zip_code":"6208"},{"phone_area_code":"35","citymun_id":1020,"location":"Manjuyod","zip_code":"6208"},{"phone_area_code":"35","citymun_id":1021,"location":"Pamploma","zip_code":"6205"},{"phone_area_code":"35","citymun_id":1022,"location":"San Jose","zip_code":"6202"},{"phone_area_code":"35","citymun_id":1024,"location":"Siaton","zip_code":"6219"},{"phone_area_code":"35","citymun_id":1025,"location":"Sibulan","zip_code":"6201"},{"phone_area_code":"35","citymun_id":1023,"location":"Sta. Catalina","zip_code":"6220"},{"phone_area_code":"35","citymun_id":1026,"location":"Tanjay","zip_code":"6204"},{"phone_area_code":"35","citymun_id":1027,"location":"Tayasan","zip_code":"6211"},{"phone_area_code":"35","citymun_id":1028,"location":"valencia","zip_code":"6215"},{"phone_area_code":"35","citymun_id":1029,"location":"Valle Hermosa","zip_code":"6224"},{"phone_area_code":"35","citymun_id":1030,"location":"Zamboanguita","zip_code":"6218"}]},{"province_id":53,"data":[{"phone_area_code":"55","citymun_id":1111,"location":"Allen","zip_code":"6405"},{"phone_area_code":"55","citymun_id":1112,"location":"Biri ","zip_code":"6410"},{"phone_area_code":"55","citymun_id":1113,"location":"Bobon ","zip_code":"6401"},{"phone_area_code":"55","citymun_id":1114,"location":"Capul","zip_code":"6408"},{"phone_area_code":"55","citymun_id":1115,"location":"Catarman","zip_code":"6806"},{"phone_area_code":"55","citymun_id":1116,"location":"Catubig","zip_code":"6418"},{"phone_area_code":"55","citymun_id":1117,"location":"Gamay","zip_code":"6422"},{"phone_area_code":"55","citymun_id":1120,"location":"La Navas","zip_code":"6420"},{"phone_area_code":"55","citymun_id":1118,"location":"Laoang","zip_code":"6411"},{"phone_area_code":"55","citymun_id":1119,"location":"Lapineg","zip_code":"6423"},{"phone_area_code":"55","citymun_id":1121,"location":"Lavazares","zip_code":"6404"},{"phone_area_code":"55","citymun_id":1122,"location":"Lope de Vega","zip_code":"6403"},{"phone_area_code":"55","citymun_id":1123,"location":"Mapanas","zip_code":"6412"},{"phone_area_code":"55","citymun_id":1124,"location":"Mondragon","zip_code":"6417"},{"phone_area_code":"55","citymun_id":1125,"location":"Palapag","zip_code":"6421"},{"phone_area_code":"55","citymun_id":1126,"location":"Pambujan","zip_code":"6413"},{"phone_area_code":"55","citymun_id":1127,"location":"Rosario","zip_code":"6416"},{"phone_area_code":"55","citymun_id":1128,"location":"San Antonio","zip_code":"6407"},{"phone_area_code":"55","citymun_id":1129,"location":"San Isidro","zip_code":"6409"},{"phone_area_code":"55","citymun_id":1130,"location":"San jose","zip_code":"6402"},{"phone_area_code":"55","citymun_id":1131,"location":"San Roque","zip_code":"6415"},{"phone_area_code":"55","citymun_id":1132,"location":"San Vicente","zip_code":"6419"},{"phone_area_code":"55","citymun_id":1133,"location":"Silvino Lubos","zip_code":"6414"},{"phone_area_code":"55","citymun_id":1134,"location":"Victoria","zip_code":"6406"}]},{"province_id":20,"data":[{"phone_area_code":"44","citymun_id":357,"location":"Aliaga","zip_code":"3111"},{"phone_area_code":"44","citymun_id":358,"location":"Bongabon","zip_code":"3128"},{"phone_area_code":"44","citymun_id":359,"location":"Cabanatuan City","zip_code":"3100"},{"phone_area_code":"44","citymun_id":360,"location":"Cabiao","zip_code":"3107"},{"phone_area_code":"44","citymun_id":361,"location":"Carranglan","zip_code":"3123"},{"phone_area_code":"44","citymun_id":362,"location":"Cuyapao","zip_code":"3117"},{"phone_area_code":"44","citymun_id":363,"location":"Gabaldon","zip_code":"3131"},{"phone_area_code":"44","citymun_id":364,"location":"Gapan","zip_code":"3105"},{"phone_area_code":"44","citymun_id":365,"location":"Gen. M. Natividad","zip_code":"3125"},{"phone_area_code":"44","citymun_id":366,"location":"Gen. Tinio","zip_code":"3104"},{"phone_area_code":"44","citymun_id":367,"location":"Guimba","zip_code":"3115"},{"phone_area_code":"44","citymun_id":368,"location":"Jaen","zip_code":"3109"},{"phone_area_code":"44","citymun_id":369,"location":"Laur","zip_code":"3129"},{"phone_area_code":"44","citymun_id":370,"location":"Lucab","zip_code":"3112"},{"phone_area_code":"44","citymun_id":371,"location":"Llanera","zip_code":"3126"},{"phone_area_code":"44","citymun_id":372,"location":"Lupao","zip_code":"3122"},{"phone_area_code":"44","citymun_id":373,"location":"Munoz","zip_code":"3119"},{"phone_area_code":"44","citymun_id":374,"location":"Nampicuan","zip_code":"3116"},{"phone_area_code":"44","citymun_id":375,"location":"Palayan City","zip_code":"3132"},{"phone_area_code":"44","citymun_id":376,"location":"Pantabangan","zip_code":"3124"},{"phone_area_code":"44","citymun_id":377,"location":"Penaranda","zip_code":"3103"},{"phone_area_code":"44","citymun_id":378,"location":"Quezon","zip_code":"3113"},{"phone_area_code":"44","citymun_id":379,"location":"Rizal","zip_code":"3127"},{"phone_area_code":"44","citymun_id":380,"location":"San Antonio","zip_code":"3108"},{"phone_area_code":"44","citymun_id":382,"location":"San Jose City","zip_code":"3108"},{"phone_area_code":"44","citymun_id":381,"location":"San Isidro","zip_code":"3106"},{"phone_area_code":"44","citymun_id":383,"location":"San Leonardo","zip_code":"3102"},{"phone_area_code":"44","citymun_id":384,"location":"Santa Rosa","zip_code":"3101"},{"phone_area_code":"44","citymun_id":385,"location":"Santo Domingo","zip_code":"3133"},{"phone_area_code":"44","citymun_id":386,"location":"Talavera","zip_code":"3114"},{"phone_area_code":"44","citymun_id":387,"location":"Talugtog","zip_code":"3118"},{"phone_area_code":"44","citymun_id":388,"location":"Zaragosa","zip_code":"3110"}]},{"province_id":15,"data":[{"phone_area_code":"78","citymun_id":292,"location":"Alfonso Castañeda","zip_code":"3111"},{"phone_area_code":"78","citymun_id":293,"location":"Ambaguio","zip_code":"3701"},{"phone_area_code":"78","citymun_id":294,"location":"Aritao","zip_code":"3704"},{"phone_area_code":"78","citymun_id":295,"location":"Bagabag","zip_code":"3711"},{"phone_area_code":"78","citymun_id":296,"location":"Bambang","zip_code":"3702"},{"phone_area_code":"78","citymun_id":297,"location":"Bayombong","zip_code":"3700"},{"phone_area_code":"78","citymun_id":298,"location":"Diadi","zip_code":"3712"},{"phone_area_code":"78","citymun_id":300,"location":"Dupax Del Sur","zip_code":"3707"},{"phone_area_code":"78","citymun_id":299,"location":"Dupax Del Norte","zip_code":"3706"},{"phone_area_code":"78","citymun_id":301,"location":"Kasibu","zip_code":"3703"},{"phone_area_code":"78","citymun_id":302,"location":"Kayapa","zip_code":"3708"},{"phone_area_code":"78","citymun_id":303,"location":"Quezon","zip_code":"3713"},{"phone_area_code":"78","citymun_id":305,"location":"Solano","zip_code":"3709"},{"phone_area_code":"78","citymun_id":304,"location":"Sta. Fe (Imugan)","zip_code":"3705"},{"phone_area_code":"78","citymun_id":306,"location":"Villa Verde (Ibung)","zip_code":"3710"}]},{"province_id":32,"data":[{"phone_area_code":"48","citymun_id":617,"location":"Aborlan","zip_code":"5302"},{"phone_area_code":"48","citymun_id":618,"location":"Agutaya","zip_code":"5320"},{"phone_area_code":"48","citymun_id":619,"location":"Araceli","zip_code":"5311"},{"phone_area_code":"48","citymun_id":620,"location":"Balabac","zip_code":"5307"},{"phone_area_code":"48","citymun_id":621,"location":"Bataraza","zip_code":"5306"},{"phone_area_code":"48","citymun_id":622,"location":"Brooke's Point","zip_code":"5305"},{"phone_area_code":"48","citymun_id":623,"location":"Busuanga","zip_code":"5317"},{"phone_area_code":"48","citymun_id":624,"location":"Cagayancillo","zip_code":"5321"},{"phone_area_code":"48","citymun_id":625,"location":"Coron","zip_code":"5316"},{"phone_area_code":"48","citymun_id":626,"location":"Culion","zip_code":"5315"},{"phone_area_code":"48","citymun_id":627,"location":"Cuyo","zip_code":"5310"},{"phone_area_code":"48","citymun_id":628,"location":"Dumaran","zip_code":"5310"},{"phone_area_code":"48","citymun_id":629,"location":"El Nido(Baquit)","zip_code":"5313"},{"phone_area_code":"48","citymun_id":630,"location":"Kalayaan","zip_code":"5322"},{"phone_area_code":"48","citymun_id":631,"location":"Linapacan","zip_code":"5314"},{"phone_area_code":"48","citymun_id":632,"location":"Magsaysay","zip_code":"5319"},{"phone_area_code":"48","citymun_id":633,"location":"Narra (Panacan)","zip_code":"5303"},{"phone_area_code":"48","citymun_id":634,"location":"Puerto Princesa City","zip_code":"5300"},{"phone_area_code":"48","citymun_id":635,"location":"Quezon","zip_code":"5304"},{"phone_area_code":"48","citymun_id":637,"location":"Roxas","zip_code":"5308"},{"phone_area_code":"48","citymun_id":638,"location":"San Vicente","zip_code":"5309"},{"phone_area_code":"48","citymun_id":640,"location":"Taytay","zip_code":"5322"}]},{"province_id":21,"data":[{"phone_area_code":"45","citymun_id":389,"location":"Angeles City","zip_code":"2009"},{"phone_area_code":"45","citymun_id":390,"location":"Apalit","zip_code":"2016"},{"phone_area_code":"45","citymun_id":391,"location":"Arayat","zip_code":"2012"},{"phone_area_code":"45","citymun_id":392,"location":"Bacolor","zip_code":"2001"},{"phone_area_code":"45","citymun_id":504,"location":"Basa Air Base","zip_code":"2007"},{"phone_area_code":"45","citymun_id":393,"location":"Candaba","zip_code":"2013"},{"phone_area_code":"45","citymun_id":394,"location":"Floridablanca","zip_code":"2006"},{"phone_area_code":"45","citymun_id":395,"location":"Guagua","zip_code":"2003"},{"phone_area_code":"45","citymun_id":396,"location":"Lubao","zip_code":"2005"},{"phone_area_code":"45","citymun_id":397,"location":"Mabalacat","zip_code":"2010"},{"phone_area_code":"45","citymun_id":398,"location":"Macabebe","zip_code":"2018"},{"phone_area_code":"45","citymun_id":399,"location":"Magalang","zip_code":"2011"},{"phone_area_code":"45","citymun_id":400,"location":"Masantol","zip_code":"2017"},{"phone_area_code":"45","citymun_id":401,"location":"Mexico","zip_code":"2021"},{"phone_area_code":"45","citymun_id":402,"location":"Minalin","zip_code":"2019"},{"phone_area_code":"45","citymun_id":403,"location":"Porac","zip_code":"2008"},{"phone_area_code":"45","citymun_id":404,"location":"San Fernando","zip_code":"2000"},{"phone_area_code":"45","citymun_id":405,"location":"San Luis","zip_code":"2014"},{"phone_area_code":"45","citymun_id":406,"location":"San Simon","zip_code":"2015"},{"phone_area_code":"45","citymun_id":407,"location":"Santa Ana","zip_code":"2022"},{"phone_area_code":"45","citymun_id":408,"location":"Santa Rita","zip_code":"2002"},{"phone_area_code":"45","citymun_id":409,"location":"Santo Tomas","zip_code":"2020"},{"phone_area_code":"45","citymun_id":410,"location":"Sasmuan (old: Sexmoan)","zip_code":"2004"}]},{"province_id":11,"data":[{"phone_area_code":"75","citymun_id":172,"location":"Agno","zip_code":"2408"},{"phone_area_code":"75","citymun_id":173,"location":"Aguilar","zip_code":"2415"},{"phone_area_code":"75","citymun_id":174,"location":"Alaminos","zip_code":"2404"},{"phone_area_code":"75","citymun_id":175,"location":"Alcala","zip_code":"2425"},{"phone_area_code":"75","citymun_id":176,"location":"Anda","zip_code":"2405"},{"phone_area_code":"75","citymun_id":177,"location":"Asingan","zip_code":"2439"},{"phone_area_code":"75","citymun_id":178,"location":"Balungao","zip_code":"2442"},{"phone_area_code":"75","citymun_id":179,"location":"Bani","zip_code":"2407"},{"phone_area_code":"75","citymun_id":180,"location":"Basista","zip_code":"2422"},{"phone_area_code":"75","citymun_id":181,"location":"Bautista","zip_code":"2424"},{"phone_area_code":"75","citymun_id":182,"location":"Bayambang","zip_code":"2423"},{"phone_area_code":"75","citymun_id":183,"location":"Binalonan","zip_code":"2436"},{"phone_area_code":"75","citymun_id":184,"location":"Binmaley","zip_code":"2417"},{"phone_area_code":75,"citymun_id":185,"location":"Bolinao","zip_code":"2406"},{"phone_area_code":"75","citymun_id":186,"location":"Bugallon","zip_code":"2416"},{"phone_area_code":"75","citymun_id":187,"location":"BUrgos","zip_code":"2410"},{"phone_area_code":"75","citymun_id":188,"location":"Calasiao","zip_code":"2418"},{"phone_area_code":"75","citymun_id":189,"location":"Dagupan City","zip_code":"2400"},{"phone_area_code":"75","citymun_id":190,"location":"Dasol","zip_code":"2411"},{"phone_area_code":"75","citymun_id":191,"location":"Infanta","zip_code":"2412"},{"phone_area_code":"75","citymun_id":192,"location":"Labrador","zip_code":"2402"},{"phone_area_code":"75","citymun_id":193,"location":"Laoac","zip_code":"2437"},{"phone_area_code":"75","citymun_id":194,"location":"Lingayen","zip_code":"2401"},{"phone_area_code":"75","citymun_id":195,"location":"Mabini","zip_code":"2409"},{"phone_area_code":"75","citymun_id":196,"location":"Malasiqui","zip_code":"2421"},{"phone_area_code":"75","citymun_id":197,"location":"Manaoag","zip_code":"2430"},{"phone_area_code":"75","citymun_id":198,"location":"Mangaldan","zip_code":"2432"},{"phone_area_code":"75","citymun_id":199,"location":"Mangatarem","zip_code":"2413"},{"phone_area_code":"75","citymun_id":200,"location":"Mapandan","zip_code":"2429"},{"phone_area_code":"75","citymun_id":201,"location":"Natividad","zip_code":"2446"},{"phone_area_code":"75","citymun_id":202,"location":"Pozorrubio","zip_code":"2435"},{"phone_area_code":"75","citymun_id":203,"location":"Rosales","zip_code":"2441"},{"phone_area_code":"75","citymun_id":304,"location":"San Carlos City","zip_code":"2420"},{"phone_area_code":"75","citymun_id":205,"location":"San Fabian","zip_code":"2433"},{"phone_area_code":"75","citymun_id":206,"location":"San Jacinto","zip_code":"2431"},{"phone_area_code":"75","citymun_id":207,"location":"San Manuel","zip_code":"2438"},{"phone_area_code":"75","citymun_id":208,"location":"San Nicolas","zip_code":"2447"},{"phone_area_code":"75","citymun_id":209,"location":"San Quintin","zip_code":"2444"},{"phone_area_code":"75","citymun_id":210,"location":"Santa Barbara","zip_code":"2419"},{"phone_area_code":"75","citymun_id":211,"location":"Santa Maria","zip_code":"2440"},{"phone_area_code":"75","citymun_id":212,"location":"Santo Tomas","zip_code":"2426"},{"phone_area_code":"75","citymun_id":213,"location":"Sison","zip_code":"2434"},{"phone_area_code":"75","citymun_id":214,"location":"Sual","zip_code":"2403"},{"phone_area_code":"75","citymun_id":215,"location":"Tayug","zip_code":"2445"},{"phone_area_code":"75","citymun_id":216,"location":"Umingan","zip_code":"2443"},{"phone_area_code":"75","citymun_id":218,"location":"Urbiztondo","zip_code":"2414"},{"phone_area_code":"75","citymun_id":217,"location":"Urdaneta","zip_code":"2428"},{"phone_area_code":"75","citymun_id":219,"location":"Villasis","zip_code":"2427"}]},{"province_id":1,"data":[{"phone_area_code":"2","citymun_id":10,"location":"Aeropark Subdivision","zip_code":"1714"},{"phone_area_code":"2","citymun_id":10,"location":"Baclaran","zip_code":"1702"},{"phone_area_code":"2","citymun_id":10,"location":"Better Living Subd.","zip_code":"1711"},{"phone_area_code":"2","citymun_id":10,"location":"BF Homes 1","zip_code":"1720"},{"phone_area_code":"2","citymun_id":10,"location":"BF Homes 2","zip_code":"1718"},{"phone_area_code":"2","citymun_id":10,"location":"Executive Heights Subd.","zip_code":"1710"},{"phone_area_code":"2","citymun_id":10,"location":"Ireneville 1&3","zip_code":"1719"},{"phone_area_code":"2","citymun_id":10,"location":"Manila Memorial Park","zip_code":"1717"},{"phone_area_code":"2","citymun_id":10,"location":"Marina Subd. (Reclamation)","zip_code":"1703"},{"phone_area_code":"2","citymun_id":10,"location":"Maywood 1","zip_code":"1719"},{"phone_area_code":"2","citymun_id":10,"location":"Maywood 2","zip_code":"1716"},{"phone_area_code":"2","citymun_id":10,"location":"Miramar Subd.","zip_code":"1712"},{"phone_area_code":"2","citymun_id":10,"location":"Multinational Subd.","zip_code":"1708"},{"phone_area_code":"2","citymun_id":10,"location":"Naia(Airport)","zip_code":"1705"},{"phone_area_code":"2","citymun_id":10,"location":"Parañaque CPO","zip_code":"1700"},{"phone_area_code":"2","citymun_id":10,"location":"Pulo","zip_code":"1706"},{"phone_area_code":"2","citymun_id":10,"location":"San Antonio Valley 1","zip_code":"1715"},{"phone_area_code":"2","citymun_id":10,"location":"San Antonio 11&12","zip_code":"1707"},{"phone_area_code":"2","citymun_id":10,"location":"Mervile Park Subd.","zip_code":"1709"},{"phone_area_code":"2","citymun_id":10,"location":"Moowalk Subdivision","zip_code":"1709"},{"phone_area_code":"2","citymun_id":10,"location":"South Admiral Village","zip_code":"1709"},{"phone_area_code":"2","citymun_id":10,"location":"Santo Niño","zip_code":"1704"},{"phone_area_code":"2","citymun_id":10,"location":"Tambo","zip_code":"1701"},{"phone_area_code":"2","citymun_id":10,"location":"United Parañaque Subd.","zip_code":"1713"}]},{"province_id":1,"data":[{"phone_area_code":"2","citymun_id":11,"location":"Domestic Airport P.O","zip_code":"1301"},{"phone_area_code":"2","citymun_id":11,"location":"Manila Bay Reclamation","zip_code":"1308"},{"phone_area_code":"2","citymun_id":11,"location":"Mall of Asia Complex (MOA)","zip_code":"1300"},{"phone_area_code":"2","citymun_id":11,"location":"Pasay City CPO-Malibay","zip_code":"1300"},{"phone_area_code":"2","citymun_id":11,"location":"PICC Reclamation Area","zip_code":"1307"},{"phone_area_code":"2","citymun_id":11,"location":"San Isidro","zip_code":"1306"},{"phone_area_code":"2","citymun_id":11,"location":"San Jose","zip_code":"1305"},{"phone_area_code":"2","citymun_id":11,"location":"San Rafael","zip_code":"1302"},{"phone_area_code":"2","citymun_id":11,"location":"San Roque","zip_code":"1303"},{"phone_area_code":"2","citymun_id":11,"location":"Sta. Clara","zip_code":"1304"},{"phone_area_code":"2","citymun_id":11,"location":"Villamor Airbase","zip_code":"1309"}]},{"province_id":1,"data":[{"phone_area_code":"2","citymun_id":12,"location":"Caniogan","zip_code":"1606"},{"phone_area_code":"2","citymun_id":12,"location":"Green Park","zip_code":"1612"},{"phone_area_code":"2","citymun_id":12,"location":"Kapitolio","zip_code":"1603"},{"phone_area_code":"2","citymun_id":12,"location":"Manggahan","zip_code":"1611"},{"phone_area_code":"2","citymun_id":12,"location":"Maybunga","zip_code":"1607"},{"phone_area_code":"2","citymun_id":12,"location":"Ortigas PO","zip_code":"1605"},{"phone_area_code":"2","citymun_id":12,"location":"Pasig CPO","zip_code":"1600"},{"phone_area_code":"2","citymun_id":12,"location":"Pinagbuhatan","zip_code":"1602"},{"phone_area_code":"2","citymun_id":12,"location":"Rosario","zip_code":"1609"},{"phone_area_code":"2","citymun_id":12,"location":"San Joaquin","zip_code":"1601"},{"phone_area_code":"2","citymun_id":12,"location":"Santolan","zip_code":"1610"},{"phone_area_code":"2","citymun_id":12,"location":"Sta. Lucia","zip_code":"1608"},{"phone_area_code":"2","citymun_id":12,"location":"Ugong","zip_code":"1604"}]},{"province_id":1,"data":[{"phone_area_code":"2","citymun_id":13,"location":"Aguho","zip_code":"1620"},{"phone_area_code":"2","citymun_id":13,"location":"Sta. Ana","zip_code":"1621"}]},{"province_id":1,"data":[{"phone_area_code":"2","citymun_id":14,"location":"Alicia","zip_code":"1105"},{"phone_area_code":"2","citymun_id":14,"location":"Amihan","zip_code":"1102"},{"phone_area_code":"2","citymun_id":14,"location":"Apolonio Samson","zip_code":"1106"},{"phone_area_code":"2","citymun_id":14,"location":"Baesa","zip_code":"1106"},{"phone_area_code":"2","citymun_id":14,"location":"Bagbag","zip_code":"1116"},{"phone_area_code":"2","citymun_id":14,"location":"Bagong Buhay","zip_code":"1109"},{"phone_area_code":"2","citymun_id":14,"location":"Bagong Lipunan ","zip_code":"1111"},{"phone_area_code":"2","citymun_id":14,"location":"Bagong Pag-asa","zip_code":"1105"},{"phone_area_code":"2","citymun_id":14,"location":"bagong Silangan","zip_code":"1119"},{"phone_area_code":"2","citymun_id":14,"location":"Bagong Bayan","zip_code":"1110"},{"phone_area_code":"2","citymun_id":14,"location":"Bahay Toro","zip_code":"1106"},{"phone_area_code":"2","citymun_id":14,"location":"Balingasa","zip_code":"1115"},{"phone_area_code":"2","citymun_id":14,"location":"Balintawak","zip_code":"1106"},{"phone_area_code":"2","citymun_id":14,"location":"Balumbato","zip_code":"1106"},{"phone_area_code":"2","citymun_id":14,"location":"Batasan Hills","zip_code":"1126"},{"phone_area_code":"2","citymun_id":14,"location":"Bayanihan","zip_code":"1109"},{"phone_area_code":"2","citymun_id":14,"location":"Botocan","zip_code":"1101"},{"phone_area_code":"2","citymun_id":14,"location":"Bungad","zip_code":"1105"},{"phone_area_code":"2","citymun_id":14,"location":"Camp Aguinaldo","zip_code":"1110"},{"phone_area_code":"2","citymun_id":14,"location":"Capitol Hills/Park","zip_code":"1126"},{"phone_area_code":"2","citymun_id":14,"location":"Capri","zip_code":"1117"},{"phone_area_code":"2","citymun_id":14,"location":"Central","zip_code":"1100"},{"phone_area_code":"2","citymun_id":14,"location":"Claro","zip_code":"1102"},{"phone_area_code":"2","citymun_id":14,"location":"Commonwealth","zip_code":"1121"},{"phone_area_code":"2","citymun_id":14,"location":"Crame","zip_code":"1111"},{"phone_area_code":"2","citymun_id":14,"location":"Cubao","zip_code":"1109"},{"phone_area_code":"2","citymun_id":14,"location":"Culiat","zip_code":"1128"},{"phone_area_code":"2","citymun_id":14,"location":"Damar","zip_code":"1115"},{"phone_area_code":"2","citymun_id":14,"location":"Damayan","zip_code":"1104"},{"phone_area_code":"2","citymun_id":14,"location":"Damayan Lagi","zip_code":"1112"},{"phone_area_code":"2","citymun_id":14,"location":"Damong Maliit","zip_code":"1123"},{"phone_area_code":"2","citymun_id":14,"location":"Delmonte","zip_code":"1105"},{"phone_area_code":"2","citymun_id":14,"location":"Diliman","zip_code":"1101"},{"phone_area_code":"2","citymun_id":14,"location":"Dioquino Zobel","zip_code":"1109"},{"phone_area_code":"2","citymun_id":14,"location":"Don Manuel","zip_code":"1113"},{"phone_area_code":"2","citymun_id":14,"location":"Dona Aurora","zip_code":"1113"},{"phone_area_code":"2","citymun_id":14,"location":"Dona Faustina Subd","zip_code":"1125"},{"phone_area_code":"2","citymun_id":14,"location":"Dona Imelda","zip_code":"1113"},{"phone_area_code":"2","citymun_id":14,"location":"Dona Josefa","zip_code":"1113"},{"phone_area_code":"2","citymun_id":14,"location":"Duyan-Duyan","zip_code":"1102"},{"phone_area_code":"2","citymun_id":14,"location":"E. Rodriguez","zip_code":"1102"},{"phone_area_code":"2","citymun_id":14,"location":"Escopa","zip_code":"1109"},{"phone_area_code":"2","citymun_id":14,"location":"Fairview ","zip_code":"1118"},{"phone_area_code":"2","citymun_id":14,"location":"Fairview North","zip_code":"1121"},{"phone_area_code":"2","citymun_id":14,"location":"Faiview South","zip_code":"1122"},{"phone_area_code":"2","citymun_id":14,"location":"Gintong Silahis","zip_code":"1114"},{"phone_area_code":"2","citymun_id":14,"location":"Gulod","zip_code":"1117"},{"phone_area_code":"2","citymun_id":14,"location":"Holy Spirit","zip_code":"1127"},{"phone_area_code":"2","citymun_id":14,"location":"Horseshoe","zip_code":"1112"},{"phone_area_code":"2","citymun_id":14,"location":"Immaculate Conception","zip_code":"1111"},{"phone_area_code":"2","citymun_id":14,"location":"Kaligayahan","zip_code":"1124"},{"phone_area_code":"2","citymun_id":14,"location":"Kalusugan","zip_code":"1112"},{"phone_area_code":"2","citymun_id":14,"location":"Kamias","zip_code":"1102"},{"phone_area_code":"2","citymun_id":14,"location":"Kamuning","zip_code":"1103"},{"phone_area_code":"2","citymun_id":14,"location":"Katipunan","zip_code":"1105"},{"phone_area_code":"2","citymun_id":14,"location":"Kaunlaran","zip_code":"1111"},{"phone_area_code":"2","citymun_id":14,"location":"Kristong Hari","zip_code":"1112"},{"phone_area_code":"2","citymun_id":14,"location":"Krus na ligas","zip_code":"1101"},{"phone_area_code":"2","citymun_id":14,"location":"Laging Handa","zip_code":"1103"},{"phone_area_code":"2","citymun_id":14,"location":"La Loma","zip_code":"1114"},{"phone_area_code":"2","citymun_id":14,"location":"Libis","zip_code":"1110"},{"phone_area_code":"2","citymun_id":14,"location":"Lourdes","zip_code":"1114"},{"phone_area_code":"2","citymun_id":14,"location":"Loyola Heights","zip_code":"1108"},{"phone_area_code":"2","citymun_id":14,"location":"Maharlica","zip_code":"1114"},{"phone_area_code":"2","citymun_id":14,"location":"Malaya","zip_code":"1101"},{"phone_area_code":"2","citymun_id":14,"location":"Mangga","zip_code":"1109"},{"phone_area_code":"2","citymun_id":14,"location":"Manresa","zip_code":"1115"},{"phone_area_code":"2","citymun_id":14,"location":"Mariana","zip_code":"1112"},{"phone_area_code":"2","citymun_id":14,"location":"Mariblo","zip_code":"1104"},{"phone_area_code":"2","citymun_id":14,"location":"Marilag","zip_code":"1109"},{"phone_area_code":"2","citymun_id":14,"location":"Masagana","zip_code":"1109"},{"phone_area_code":"2","citymun_id":14,"location":"Masambong","zip_code":"1105"},{"phone_area_code":"2","citymun_id":14,"location":"Matalahib","zip_code":"1114"},{"phone_area_code":"2","citymun_id":14,"location":"Matandang Balara","zip_code":"1119"},{"phone_area_code":"2","citymun_id":14,"location":"Milagrosa","zip_code":"1109"},{"phone_area_code":"2","citymun_id":14,"location":"Nagkaisang Nayaon","zip_code":"1125"},{"phone_area_code":"2","citymun_id":14,"location":"Nayon Kaunlaran","zip_code":"1104"},{"phone_area_code":"2","citymun_id":14,"location":"New Era","zip_code":"1107"},{"phone_area_code":"2","citymun_id":14,"location":"Novaliches Town Proper","zip_code":"1123"},{"phone_area_code":"2","citymun_id":14,"location":"Obrero","zip_code":"1103"},{"phone_area_code":"2","citymun_id":14,"location":"Old Capitol Site","zip_code":"1101"},{"phone_area_code":"2","citymun_id":14,"location":"Parang Bundok","zip_code":"1114"},{"phone_area_code":"2","citymun_id":14,"location":"Pag-ibig sa Nayon","zip_code":"1115"},{"phone_area_code":"2","citymun_id":14,"location":"Paligsahan","zip_code":"1103"},{"phone_area_code":"2","citymun_id":14,"location":"Paltok","zip_code":"1105"},{"phone_area_code":"2","citymun_id":14,"location":"Pansol","zip_code":"1108"},{"phone_area_code":"2","citymun_id":14,"location":"Paraiso","zip_code":"1104"},{"phone_area_code":"2","citymun_id":14,"location":"Pasong Putik","zip_code":"1118"},{"phone_area_code":"2","citymun_id":14,"location":"Pasong Tamo","zip_code":"1107"},{"phone_area_code":"2","citymun_id":14,"location":"Payatas","zip_code":"1119"},{"phone_area_code":"2","citymun_id":14,"location":"Phil-Am/Philam","zip_code":"1104"},{"phone_area_code":"2","citymun_id":14,"location":"Pinagkaisahan","zip_code":"1111"},{"phone_area_code":"2","citymun_id":14,"location":"Pinahan","zip_code":"1100"},{"phone_area_code":"2","citymun_id":14,"location":"Project 4","zip_code":"1109"},{"phone_area_code":"2","citymun_id":14,"location":"Project 6","zip_code":"1100"},{"phone_area_code":"2","citymun_id":14,"location":"Project 7","zip_code":"1105"},{"phone_area_code":"2","citymun_id":14,"location":"Project 8","zip_code":"1106"},{"phone_area_code":"2","citymun_id":14,"location":"Quirino District/Project 2&3","zip_code":"1102"},{"phone_area_code":"2","citymun_id":14,"location":"Quezon City CPO","zip_code":"1100"},{"phone_area_code":"2","citymun_id":14,"location":"Ramon Magsaysay","zip_code":"1105"},{"phone_area_code":"2","citymun_id":14,"location":"Roxas District","zip_code":"1103"},{"phone_area_code":"2","citymun_id":14,"location":"Sacred Heart","zip_code":"1103"},{"phone_area_code":"2","citymun_id":14,"location":"San Martin de Porres","zip_code":"1111"},{"phone_area_code":"2","citymun_id":14,"location":"St. Ignatuis","zip_code":"1110"},{"phone_area_code":"2","citymun_id":14,"location":"St. Peter","zip_code":"1114"},{"phone_area_code":"2","citymun_id":14,"location":"Salvacion","zip_code":"1114"},{"phone_area_code":"2","citymun_id":14,"location":"San Agustin","zip_code":"1117"},{"phone_area_code":"2","citymun_id":14,"location":"San Antonio","zip_code":"1105"},{"phone_area_code":"2","citymun_id":14,"location":"San Bartolome","zip_code":"1116"},{"phone_area_code":"2","citymun_id":14,"location":"Sangandaan","zip_code":"1116"},{"phone_area_code":"2","citymun_id":14,"location":"San Isidro","zip_code":"1113"},{"phone_area_code":"2","citymun_id":14,"location":"San Isidro Labrador","zip_code":"1114"},{"phone_area_code":"2","citymun_id":14,"location":"San Jose","zip_code":"1115"},{"phone_area_code":"2","citymun_id":14,"location":"San Roque","zip_code":"1109"},{"phone_area_code":"2","citymun_id":14,"location":"San Vicente ","zip_code":"1101"},{"phone_area_code":"2","citymun_id":14,"location":"Santa Cruz","zip_code":"1104"},{"phone_area_code":"2","citymun_id":14,"location":"Santa Monica","zip_code":"1117"},{"phone_area_code":"2","citymun_id":14,"location":"Santa Teresita","zip_code":"1114"},{"phone_area_code":"2","citymun_id":14,"location":"Santol","zip_code":"1113"},{"phone_area_code":"2","citymun_id":14,"location":"Sto. Cristo","zip_code":"1105"},{"phone_area_code":"2","citymun_id":14,"location":"Santo Nino","zip_code":"1113"},{"phone_area_code":"2","citymun_id":14,"location":"Sauyo","zip_code":"1116"},{"phone_area_code":"2","citymun_id":14,"location":"Sienna","zip_code":"1114"},{"phone_area_code":"2","citymun_id":14,"location":"Sikatuna Village","zip_code":"1101"},{"phone_area_code":"2","citymun_id":14,"location":"Silangan","zip_code":"1102"},{"phone_area_code":"2","citymun_id":14,"location":"Socorro","zip_code":"1109"},{"phone_area_code":"2","citymun_id":14,"location":"South Triangle","zip_code":"1103"},{"phone_area_code":"2","citymun_id":14,"location":"Tagumpay","zip_code":"1109"},{"phone_area_code":"2","citymun_id":14,"location":"Talampas","zip_code":"1110"},{"phone_area_code":"2","citymun_id":14,"location":"Talayan","zip_code":"1104"},{"phone_area_code":"2","citymun_id":14,"location":"Talipapa","zip_code":"1116"},{"phone_area_code":"2","citymun_id":14,"location":"Tandang Sora","zip_code":"1116"},{"phone_area_code":"2","citymun_id":14,"location":"Tatalon","zip_code":"1113"},{"phone_area_code":"2","citymun_id":14,"location":"Teachers Village","zip_code":"1101"},{"phone_area_code":"2","citymun_id":14,"location":"Ugong Norte","zip_code":"1110"},{"phone_area_code":"2","citymun_id":14,"location":"Unang Sigaw","zip_code":"1106"},{"phone_area_code":"2","citymun_id":14,"location":"University Of the Philippines","zip_code":"1101"},{"phone_area_code":"2","citymun_id":14,"location":"UP Village","zip_code":"1112"},{"phone_area_code":"2","citymun_id":14,"location":"Valencia","zip_code":"1112"},{"phone_area_code":"2","citymun_id":14,"location":"Vasra","zip_code":"1128"},{"phone_area_code":"2","citymun_id":14,"location":"Veterans Village","zip_code":"1105"},{"phone_area_code":"2","citymun_id":14,"location":"Villa Maria Clara","zip_code":"1109"},{"phone_area_code":"2","citymun_id":14,"location":"Viologo Homes","zip_code":"1120"},{"phone_area_code":"2","citymun_id":14,"location":"West Triangle","zip_code":"1104"},{"phone_area_code":"2","citymun_id":14,"location":"White Plains","zip_code":"1110"}]},{"province_id":27,"data":[{"phone_area_code":"42","citymun_id":530,"location":"Agdangan","zip_code":"4304"},{"phone_area_code":"42","citymun_id":531,"location":"Alabat","zip_code":"4333"},{"phone_area_code":"42","citymun_id":532,"location":"Atimonan","zip_code":"4331"},{"phone_area_code":"42","citymun_id":533,"location":"Buenavista","zip_code":"4320"},{"phone_area_code":"42","citymun_id":534,"location":"Burdeos","zip_code":"4340"},{"phone_area_code":"42","citymun_id":535,"location":"Calauag","zip_code":"4318"},{"phone_area_code":"42","citymun_id":536,"location":"Candelaria","zip_code":"4323"},{"phone_area_code":"42","citymun_id":537,"location":"Catanuan","zip_code":"4311"},{"phone_area_code":"42","citymun_id":538,"location":"Dolores","zip_code":"4326"},{"phone_area_code":"42","citymun_id":539,"location":"Gen. Luna","zip_code":"4310"},{"phone_area_code":"42","citymun_id":540,"location":"Gen. Nakar","zip_code":"4338"},{"phone_area_code":"42","citymun_id":541,"location":"Guinayangan","zip_code":"4319"},{"phone_area_code":"42","citymun_id":542,"location":"Gumaca","zip_code":"4306"},{"phone_area_code":"42","citymun_id":1176,"location":"Hondagua","zip_code":"4317"},{"phone_area_code":"42","citymun_id":543,"location":"Infanta","zip_code":"4336"},{"phone_area_code":"42","citymun_id":544,"location":"Jomalig","zip_code":"4342"},{"phone_area_code":"42","citymun_id":545,"location":"Lopez","zip_code":"4316"},{"phone_area_code":"42","citymun_id":546,"location":"Lucban","zip_code":"4328"},{"phone_area_code":"42","citymun_id":547,"location":"Lucena City","zip_code":"4301"},{"phone_area_code":"42","citymun_id":548,"location":"Macalelon","zip_code":"4309"},{"phone_area_code":"42","citymun_id":549,"location":"Mauban","zip_code":"4330"},{"phone_area_code":"42","citymun_id":550,"location":"Mulunay","zip_code":"4312"},{"phone_area_code":"42","citymun_id":551,"location":"Padre Burgos","zip_code":"4303"},{"phone_area_code":"42","citymun_id":552,"location":"Pagbilao","zip_code":"4302"},{"phone_area_code":"42","citymun_id":553,"location":"Panukulan","zip_code":"4337"},{"phone_area_code":"42","citymun_id":554,"location":"Patnonangan","zip_code":"4341"},{"phone_area_code":"42","citymun_id":555,"location":"Perez","zip_code":"4334"},{"phone_area_code":"42","citymun_id":556,"location":"Pitogo","zip_code":"4308"},{"phone_area_code":"42","citymun_id":557,"location":"Plaridel","zip_code":"4306"},{"phone_area_code":"42","citymun_id":558,"location":"Polilio","zip_code":"4339"},{"phone_area_code":"42","citymun_id":559,"location":"Quezon","zip_code":"4332"},{"phone_area_code":"42","citymun_id":560,"location":"Real","zip_code":"4335"},{"phone_area_code":"42","citymun_id":561,"location":"Sampaloc","zip_code":"4329"},{"phone_area_code":"42","citymun_id":562,"location":"San Andres","zip_code":"4314"},{"phone_area_code":"42","citymun_id":563,"location":"San Antonio","zip_code":"4324"},{"phone_area_code":"42","citymun_id":564,"location":"San Francisco","zip_code":"4315"},{"phone_area_code":"42","citymun_id":565,"location":"San Narciso","zip_code":"4313"},{"phone_area_code":"42","citymun_id":566,"location":"Sariaya","zip_code":"4322"},{"phone_area_code":"42","citymun_id":567,"location":"Tagkawayan","zip_code":"4321"},{"phone_area_code":"42","citymun_id":568,"location":"Tayabas","zip_code":"4327"},{"phone_area_code":"42","citymun_id":569,"location":"Tiaong","zip_code":"4325"},{"phone_area_code":"42","citymun_id":570,"location":"Unisan","zip_code":"4305"}]},{"province_id":16,"data":[{"phone_area_code":"78","citymun_id":307,"location":"Aglipay","zip_code":"3403"},{"phone_area_code":"78","citymun_id":308,"location":"Cabarruguis","zip_code":"3400"},{"phone_area_code":"78","citymun_id":309,"location":"Diffun","zip_code":"3401"},{"phone_area_code":"78","citymun_id":310,"location":"Maddela","zip_code":"3404"},{"phone_area_code":"78","citymun_id":311,"location":"Nagtipunan (Abbag)","zip_code":"3405"},{"phone_area_code":"78","citymun_id":312,"location":"Saguday","zip_code":"3402"}]},{"province_id":28,"data":[{"phone_area_code":"2","citymun_id":572,"location":"Antipolo","zip_code":"1870"},{"phone_area_code":"-","citymun_id":580,"location":"Montalban (Rodriguez)","zip_code":"1860"},{"phone_area_code":"-","citymun_id":581,"location":"San Mateo","zip_code":"1850"},{"phone_area_code":"-","citymun_id":584,"location":"Teresa","zip_code":"1880"},{"phone_area_code":"-","citymun_id":571,"location":"Angono","zip_code":"1930"},{"phone_area_code":"-","citymun_id":573,"location":"Baras","zip_code":"1970"},{"phone_area_code":"-","citymun_id":574,"location":"Binangonan","zip_code":"1940"},{"phone_area_code":"2","citymun_id":575,"location":"Cainta","zip_code":"1900"},{"phone_area_code":"-","citymun_id":576,"location":"Cardona","zip_code":"1950"},{"phone_area_code":"-","citymun_id":577,"location":"Jala-Jala","zip_code":"1990"},{"phone_area_code":"-","citymun_id":578,"location":"Morong","zip_code":"1960"},{"phone_area_code":"-","citymun_id":579,"location":"Pililia","zip_code":"1910"},{"phone_area_code":"-","citymun_id":582,"location":"Tanay","zip_code":"1980"},{"phone_area_code":"-","citymun_id":583,"location":"Taytay","zip_code":"1920"}]},{"province_id":33,"data":[{"phone_area_code":"42","citymun_id":641,"location":"Alcantara","zip_code":"5509"},{"phone_area_code":"42","citymun_id":642,"location":"Banton(Jones)","zip_code":"5515"},{"phone_area_code":"42","citymun_id":643,"location":"Cajidiocan","zip_code":"5512"},{"phone_area_code":"42","citymun_id":644,"location":"Calatrava","zip_code":"5503"},{"phone_area_code":"42","citymun_id":645,"location":"Concepcion","zip_code":"5516"},{"phone_area_code":"42","citymun_id":646,"location":"Corcuera","zip_code":"5514"},{"phone_area_code":"42","citymun_id":647,"location":"Ferrol","zip_code":"5506"},{"phone_area_code":"42","citymun_id":657,"location":"Sta. Maria","zip_code":"5508"},{"phone_area_code":"42","citymun_id":648,"location":"Looc","zip_code":"5507"},{"phone_area_code":"42","citymun_id":649,"location":"Magdiwang","zip_code":"5511"},{"phone_area_code":"42","citymun_id":650,"location":"Odiongan","zip_code":"5505"},{"phone_area_code":"42","citymun_id":651,"location":"Romblon","zip_code":"5500"},{"phone_area_code":"42","citymun_id":652,"location":"San Agustin","zip_code":"7212"},{"phone_area_code":"42","citymun_id":653,"location":"San Andres","zip_code":"5504"},{"phone_area_code":"42","citymun_id":654,"location":"San Fernando","zip_code":"5513"},{"phone_area_code":"42","citymun_id":655,"location":"San Jose","zip_code":"5510"},{"phone_area_code":"42","citymun_id":656,"location":"Santa Fe","zip_code":"5508"}]},{"province_id":1,"data":[{"phone_area_code":"2","citymun_id":15,"location":"Eisenhower-Crame","zip_code":"1504"},{"phone_area_code":"2","citymun_id":15,"location":"Greenhills North","zip_code":"1503"},{"phone_area_code":"2","citymun_id":15,"location":"Greenhills PO","zip_code":"1502"},{"phone_area_code":"2","citymun_id":15,"location":"San Juan CPO","zip_code":"1500"},{"phone_area_code":"2","citymun_id":15,"location":"Asian Development Bank","zip_code":"0401"},{"phone_area_code":"2","citymun_id":15,"location":"Bible Church on the Air","zip_code":"0420"},{"phone_area_code":"2","citymun_id":15,"location":"Int'l Correspondence School","zip_code":"0400"},{"phone_area_code":"2","citymun_id":15,"location":"Radio Bible Class","zip_code":"0410"}]},{"province_id":70,"data":[{"phone_area_code":"83","citymun_id":1411,"location":"Alabel","zip_code":"9501"},{"phone_area_code":"83","citymun_id":1412,"location":"Glan ","zip_code":"9517"},{"phone_area_code":"83","citymun_id":1413,"location":"Kiamba ","zip_code":"9514"},{"phone_area_code":"83","citymun_id":1414,"location":"Maasim","zip_code":"9502"},{"phone_area_code":"83","citymun_id":1415,"location":"Maitum","zip_code":"9515"},{"phone_area_code":"83","citymun_id":1416,"location":"Malapatan","zip_code":"9516"},{"phone_area_code":"83","citymun_id":1417,"location":"Malungon","zip_code":"9503"}]},{"province_id":49,"data":[{"phone_area_code":"35","citymun_id":1031,"location":"Enrile Villanueva","zip_code":"6230"},{"phone_area_code":"35","citymun_id":1032,"location":"Larena","zip_code":"6226"},{"phone_area_code":"35","citymun_id":1033,"location":"Lazi ","zip_code":"6228"},{"phone_area_code":"35","citymun_id":1034,"location":"Maria","zip_code":"6229"},{"phone_area_code":"35","citymun_id":1035,"location":"San juan","zip_code":"6227"},{"phone_area_code":"35","citymun_id":1036,"location":"Siquijor","zip_code":"6225"}]},{"province_id":39,"data":[{"phone_area_code":"56","citymun_id":1031,"location":"Bacon","zip_code":"4701"},{"phone_area_code":"56","citymun_id":1032,"location":"Barcelona","zip_code":"4712"},{"phone_area_code":"56","citymun_id":1033,"location":"Bulan ","zip_code":"4706"},{"phone_area_code":"56","citymun_id":1034,"location":"Bulusan","zip_code":"4704"},{"phone_area_code":"56","citymun_id":1035,"location":"Casiguran","zip_code":"4702"},{"phone_area_code":"56","citymun_id":1036,"location":"Castilla","zip_code":"4713"},{"phone_area_code":"56","citymun_id":1031,"location":"Dansol","zip_code":"4715"},{"phone_area_code":"56","citymun_id":1032,"location":"Gubat","zip_code":"4710"},{"phone_area_code":"56","citymun_id":1033,"location":"Irosin","zip_code":"4707"},{"phone_area_code":"56","citymun_id":1034,"location":"Juban","zip_code":"4703"},{"phone_area_code":"56","citymun_id":1035,"location":"Magallanes","zip_code":"4705"},{"phone_area_code":"56","citymun_id":1036,"location":"Matnog","zip_code":"4708"},{"phone_area_code":"56","citymun_id":1031,"location":"Pilar","zip_code":"4714"},{"phone_area_code":"56","citymun_id":1032,"location":"Prieto Diaz","zip_code":"4711"},{"phone_area_code":"56","citymun_id":1033,"location":"Sta. Magdalena","zip_code":"4709"},{"phone_area_code":"56","citymun_id":1034,"location":"Sorsogon","zip_code":"4700"}]},{"province_id":55,"data":[{"phone_area_code":"53","citymun_id":1161,"location":"Anahawan","zip_code":"6610"},{"phone_area_code":"53","citymun_id":1162,"location":"Bomtoc","zip_code":"6604"},{"phone_area_code":"53","citymun_id":1163,"location":"Hinunangan","zip_code":"6608"},{"phone_area_code":"53","citymun_id":1164,"location":"Hinundayan","zip_code":"6609"},{"phone_area_code":"53","citymun_id":1165,"location":"Libangon","zip_code":"6615"},{"phone_area_code":"53","citymun_id":1166,"location":"Liloan","zip_code":"6612"},{"phone_area_code":"53","citymun_id":1168,"location":"Maasin","zip_code":"6600"},{"phone_area_code":"53","citymun_id":1169,"location":"Macrohon","zip_code":"6601"},{"phone_area_code":"53","citymun_id":1170,"location":"Malitbog","zip_code":"6603"},{"phone_area_code":"53","citymun_id":1171,"location":"Padre Burgos","zip_code":"6602"},{"phone_area_code":"53","citymun_id":1172,"location":"Pintuyan","zip_code":"6614"},{"phone_area_code":"53","citymun_id":1174,"location":"San Francisco","zip_code":"6613"},{"phone_area_code":"53","citymun_id":1175,"location":"San Juan (cabalian)","zip_code":"6611"},{"phone_area_code":"53","citymun_id":1176,"location":"San Ricardo","zip_code":"6617"},{"phone_area_code":"53","citymun_id":1177,"location":"Silago","zip_code":"6607"},{"phone_area_code":"53","citymun_id":1178,"location":"Sogod","zip_code":"6606"},{"phone_area_code":"53","citymun_id":1173,"location":"St. Bernard","zip_code":"6616"},{"phone_area_code":"53","citymun_id":514,"location":"Tomas Oppus","zip_code":"6605"}]},{"province_id":72,"data":[{"phone_area_code":"2","citymun_id":1430,"location":"Bagumbayan","zip_code":"9810"},{"phone_area_code":"2","citymun_id":1431,"location":"Colombio","zip_code":"9801"},{"phone_area_code":"2","citymun_id":1432,"location":"Esperanza (Ampatuan)","zip_code":"9806"},{"phone_area_code":"2","citymun_id":1433,"location":"Isulan","zip_code":"9805"},{"phone_area_code":"2","citymun_id":1434,"location":"Kalamansig","zip_code":"9808"},{"phone_area_code":"64","citymun_id":1436,"location":"Lebak(Salaman)","zip_code":"9807"},{"phone_area_code":"64","citymun_id":1437,"location":"Lutayan","zip_code":"9803"},{"phone_area_code":"64","citymun_id":1435,"location":"Mariano Marcos","zip_code":"9802"},{"phone_area_code":"64","citymun_id":1437,"location":"Palimbang","zip_code":"9809"},{"phone_area_code":"64","citymun_id":1439,"location":"Pres. Quirino","zip_code":"9804"},{"phone_area_code":"64","citymun_id":1440,"location":"Sen. Ninoy Aquino","zip_code":"9811"},{"phone_area_code":"64","citymun_id":1441,"location":"Takurong","zip_code":"9800"}]},{"province_id":81,"data":[{"phone_area_code":"-","citymun_id":1607,"location":"Indanan","zip_code":"7407"},{"phone_area_code":"-","citymun_id":1608,"location":"Jolo","zip_code":"7400"},{"phone_area_code":"-","citymun_id":1609,"location":"Kalingalan Kalauang","zip_code":"7416"},{"phone_area_code":"-","citymun_id":16010,"location":"Lugus","zip_code":"7411"},{"phone_area_code":"-","citymun_id":1611,"location":"Luuk","zip_code":"7404"},{"phone_area_code":"-","citymun_id":1612,"location":"Maimbung","zip_code":"7409"},{"phone_area_code":"-","citymun_id":1605,"location":"Marungas","zip_code":"7413"},{"phone_area_code":"-","citymun_id":1613,"location":"Panamao","zip_code":"7402"},{"phone_area_code":"-","citymun_id":1616,"location":"Panglima Estino","zip_code":"7415"},{"phone_area_code":"-","citymun_id":1617,"location":"Panguntaran","zip_code":"7414"},{"phone_area_code":"-","citymun_id":1618,"location":"Parang","zip_code":"7408"},{"phone_area_code":"-","citymun_id":1619,"location":"Pata","zip_code":"7405"},{"phone_area_code":"-","citymun_id":1620,"location":"Patikul","zip_code":"7401"},{"phone_area_code":"-","citymun_id":1621,"location":"Siasi","zip_code":"7412"},{"phone_area_code":"-","citymun_id":1622,"location":"Talipao","zip_code":"7403"},{"phone_area_code":"-","citymun_id":1623,"location":"Tapul","zip_code":"7410"},{"phone_area_code":"-","citymun_id":1605,"location":"Tongkil","zip_code":"7406"}]},{"province_id":76,"data":[{"phone_area_code":"86","citymun_id":1475,"location":"Alegria","zip_code":"8425"},{"phone_area_code":"86","citymun_id":1476,"location":"Bacuag","zip_code":"8408"},{"phone_area_code":"86","citymun_id":1477,"location":"Burgos","zip_code":"8424"},{"phone_area_code":"86","citymun_id":1478,"location":"Claver","zip_code":"8410"},{"phone_area_code":"86","citymun_id":1479,"location":"Dapa","zip_code":"8417"},{"phone_area_code":"86","citymun_id":1480,"location":"Del Carmen","zip_code":"8418"},{"phone_area_code":"86","citymun_id":1481,"location":"Gen. Luna","zip_code":"8419"},{"phone_area_code":"86","citymun_id":1482,"location":"Gigaquit","zip_code":"8409"},{"phone_area_code":"86","citymun_id":1147,"location":"Loreto","zip_code":"8415"},{"phone_area_code":"86","citymun_id":1483,"location":"Mainit","zip_code":"8407"},{"phone_area_code":"86","citymun_id":1484,"location":"Malimano","zip_code":"8402"},{"phone_area_code":"86","citymun_id":1485,"location":"Pilar","zip_code":"8420"},{"phone_area_code":"86","citymun_id":1486,"location":"Placer","zip_code":"8405"},{"phone_area_code":"86","citymun_id":1487,"location":"San Benito","zip_code":"8423"},{"phone_area_code":"86","citymun_id":1488,"location":"San Francisco","zip_code":"8401"},{"phone_area_code":"86","citymun_id":1489,"location":"San Isidro","zip_code":"8421"},{"phone_area_code":"86","citymun_id":1490,"location":"Santa Monica","zip_code":"8422"},{"phone_area_code":"86","citymun_id":1491,"location":"Sison","zip_code":"8404"},{"phone_area_code":"86","citymun_id":1492,"location":"Socorro","zip_code":"8416"},{"phone_area_code":"86","citymun_id":1493,"location":"Surigao City","zip_code":"8400"},{"phone_area_code":"86","citymun_id":1494,"location":"Tagana-an","zip_code":"8403"},{"phone_area_code":"86","citymun_id":1495,"location":"Tubod","zip_code":"8406"}]},{"province_id":77,"data":[{"phone_area_code":"86","citymun_id":1496,"location":"Barobo","zip_code":"8309"},{"phone_area_code":"86","citymun_id":1497,"location":"Bayabas","zip_code":"8303"},{"phone_area_code":"86","citymun_id":1498,"location":"Bislig","zip_code":"8311"},{"phone_area_code":"86","citymun_id":1499,"location":"Cagwait","zip_code":"8311"},{"phone_area_code":"86","citymun_id":1500,"location":"Cantillan","zip_code":"8317"},{"phone_area_code":"86","citymun_id":1501,"location":"Carmen","zip_code":"8315"},{"phone_area_code":"86","citymun_id":1502,"location":"Carrascal","zip_code":"8318"},{"phone_area_code":"86","citymun_id":1503,"location":"Cortez","zip_code":"8313"},{"phone_area_code":"86","citymun_id":1504,"location":"Hinatuan","zip_code":"8310"},{"phone_area_code":"86","citymun_id":1505,"location":"Lanuza","zip_code":"8314"},{"phone_area_code":"86","citymun_id":1506,"location":"Lianga","zip_code":"8307"},{"phone_area_code":"86","citymun_id":1507,"location":"Lingig","zip_code":"8312"},{"phone_area_code":"86","citymun_id":1508,"location":"Madrid","zip_code":"8316"},{"phone_area_code":"86","citymun_id":1509,"location":"Mahihatag","zip_code":"8306"},{"phone_area_code":"86","citymun_id":1510,"location":"San Agustin","zip_code":"8305"},{"phone_area_code":"86","citymun_id":1511,"location":"San Miguel","zip_code":"8301"},{"phone_area_code":"86","citymun_id":1512,"location":"Tagbina","zip_code":"8308"},{"phone_area_code":"86","citymun_id":1513,"location":"Tago","zip_code":"8302"},{"phone_area_code":"86","citymun_id":1514,"location":"Tandag","zip_code":"8300"}]},{"province_id":1,"data":[{"phone_area_code":"2","citymun_id":16,"location":"Bay Breeze Village","zip_code":"1636"},{"phone_area_code":"2","citymun_id":16,"location":"Bicutan","zip_code":"1631"},{"phone_area_code":"2","citymun_id":16,"location":"Lower Bicutan","zip_code":"1632"},{"phone_area_code":"2","citymun_id":16,"location":"Upper Bicutan","zip_code":"1633"},{"phone_area_code":"2","citymun_id":16,"location":"Western Bicutan","zip_code":"1630"},{"phone_area_code":"2","citymun_id":16,"location":"Ligid","zip_code":"1638"},{"phone_area_code":"2","citymun_id":16,"location":"Nichols-Mckinley","zip_code":"1634"},{"phone_area_code":"2","citymun_id":16,"location":"Tukukan","zip_code":"1637"}]},{"province_id":22,"data":[{"phone_area_code":"45","citymun_id":411,"location":"Anao","zip_code":"2310"},{"phone_area_code":"45","citymun_id":412,"location":"Bamban","zip_code":"2317"},{"phone_area_code":"45","citymun_id":413,"location":"Camiling","zip_code":"2306"},{"phone_area_code":"45","citymun_id":414,"location":"Capas","zip_code":"2315"},{"phone_area_code":"45","citymun_id":415,"location":"Cocepcion","zip_code":"2316"},{"phone_area_code":"45","citymun_id":416,"location":"Gerona","zip_code":"2302"},{"phone_area_code":"45","citymun_id":417,"location":"La Paz","zip_code":"2314"},{"phone_area_code":"45","citymun_id":418,"location":"Mayantoc","zip_code":"2304"},{"phone_area_code":"45","citymun_id":419,"location":"Mancada","zip_code":"2308"},{"phone_area_code":"45","citymun_id":420,"location":"Paniqui","zip_code":"2307"},{"phone_area_code":"45","citymun_id":421,"location":"Pura","zip_code":"2312"},{"phone_area_code":"45","citymun_id":422,"location":"Ramos","zip_code":"2311"},{"phone_area_code":"45","citymun_id":423,"location":"San Clemente","zip_code":"2305"},{"phone_area_code":"45","citymun_id":425,"location":"San Manuel","zip_code":"2309"},{"phone_area_code":"45","citymun_id":426,"location":"Sta. Ignacia","zip_code":"2303"},{"phone_area_code":"45","citymun_id":427,"location":"Tarlac","zip_code":"2300"},{"phone_area_code":"45","citymun_id":428,"location":"Victoria","zip_code":"2313"}]},{"province_id":82,"data":[{"phone_area_code":"68","citymun_id":411,"location":"Balimbing","zip_code":"7501"},{"phone_area_code":"68","citymun_id":1624,"location":"Bongao","zip_code":"7500"},{"phone_area_code":"68","citymun_id":413,"location":"Cagayan de Sulu","zip_code":"7508"},{"phone_area_code":"68","citymun_id":1625,"location":"Languyan","zip_code":"7509"},{"phone_area_code":"68","citymun_id":1628,"location":"Sapa-sapa","zip_code":"7503"},{"phone_area_code":"68","citymun_id":1630,"location":"Simunol","zip_code":"7505"},{"phone_area_code":"68","citymun_id":1631,"location":"Sitangkay","zip_code":"7506"},{"phone_area_code":"68","citymun_id":1632,"location":"South Ubian","zip_code":"7504"},{"phone_area_code":"68","citymun_id":1634,"location":"Taganak (turtle islands)","zip_code":"7507"},{"phone_area_code":"68","citymun_id":1633,"location":"Tandu Bas","zip_code":"7502"}]},{"province_id":1,"data":[{"phone_area_code":"2","citymun_id":17,"location":"Arkong Bato, Rincon, Pasolo, Malanday, Mabolo, Polo","zip_code":"1444"},{"phone_area_code":"2","citymun_id":17,"location":"Balangkas,Caloong","zip_code":"1445"},{"phone_area_code":"2","citymun_id":17,"location":"Dalandan West, Canumay","zip_code":"1443"},{"phone_area_code":"2","citymun_id":17,"location":"East Canumay, Lawang Bato Punturin","zip_code":"1447"},{"phone_area_code":"2","citymun_id":17,"location":"Fortune Village, Paseo de Blas Gen. T de leon","zip_code":"1442"},{"phone_area_code":"2","citymun_id":17,"location":"Karuhatan","zip_code":"1441"},{"phone_area_code":"2","citymun_id":17,"location":"Lingunan","zip_code":"1446"},{"phone_area_code":"2","citymun_id":17,"location":"Mapulang Lupa","zip_code":"1448"},{"phone_area_code":"2","citymun_id":17,"location":"Valenzuela CPO, Malinta","zip_code":"1440"},{"phone_area_code":"2","citymun_id":17,"location":"Valenzuela P.O Boxes","zip_code":"1496"},{"phone_area_code":"2","citymun_id":17,"location":"Far Eastern Broadcasting","zip_code":"0560"},{"phone_area_code":"2","citymun_id":17,"location":"Feblas Col. of Bible","zip_code":"0550"}]},{"province_id":54,"data":[{"phone_area_code":"55","citymun_id":1135,"location":"Almagro","zip_code":"6724"},{"phone_area_code":"55","citymun_id":1136,"location":"Basey ","zip_code":"6720"},{"phone_area_code":"55","citymun_id":1137,"location":"Calbayog City ","zip_code":"6701"},{"phone_area_code":"55","citymun_id":1138,"location":"Calbiga","zip_code":"6715"},{"phone_area_code":"55","citymun_id":1139,"location":"Catbalogan","zip_code":"6700"},{"phone_area_code":"55","citymun_id":1140,"location":"Daram","zip_code":"6722"},{"phone_area_code":"55","citymun_id":1141,"location":"Gandara","zip_code":"6706"},{"phone_area_code":"55","citymun_id":1142,"location":"Hinbangan","zip_code":"6713"},{"phone_area_code":"55","citymun_id":1143,"location":"Jiabong","zip_code":"6701"},{"phone_area_code":"55","citymun_id":1144,"location":"Marabut","zip_code":"6721"},{"phone_area_code":"55","citymun_id":1145,"location":"Matuguinao","zip_code":"6708"},{"phone_area_code":"55","citymun_id":1146,"location":"Motiong","zip_code":"6702"},{"phone_area_code":"55","citymun_id":1147,"location":"Pagsanjan","zip_code":"6705"},{"phone_area_code":"55","citymun_id":1149,"location":"Pinaabacdao","zip_code":"6716"},{"phone_area_code":"55","citymun_id":1150,"location":"San Jorge","zip_code":"6707"},{"phone_area_code":"55","citymun_id":1151,"location":"San Jose de Bauan","zip_code":"6723"},{"phone_area_code":"55","citymun_id":1152,"location":"San Sebastian","zip_code":"6714"},{"phone_area_code":"55","citymun_id":1153,"location":"Sta. Margarita","zip_code":"6709"},{"phone_area_code":"55","citymun_id":1154,"location":"Sta. Rita","zip_code":"6718"},{"phone_area_code":"55","citymun_id":1155,"location":"Sto. Nino","zip_code":"6711"},{"phone_area_code":"55","citymun_id":1156,"location":"Tagapulan","zip_code":"6712"},{"phone_area_code":"55","citymun_id":1157,"location":"Talarora","zip_code":"6719"},{"phone_area_code":"55","citymun_id":1158,"location":"Tarangnan","zip_code":"6704"},{"phone_area_code":"55","citymun_id":1159,"location":"Villareal","zip_code":"6414"},{"phone_area_code":"55","citymun_id":1134,"location":"Wright","zip_code":"6703"},{"phone_area_code":"55","citymun_id":1160,"location":"Zumarraga","zip_code":"6725"}]},{"province_id":23,"data":[{"phone_area_code":"47","citymun_id":429,"location":"Botolan","zip_code":"2202"},{"phone_area_code":"47","citymun_id":430,"location":"Cabangan","zip_code":"2203"},{"phone_area_code":"47","citymun_id":431,"location":"Candelaria","zip_code":"2212"},{"phone_area_code":"47","citymun_id":432,"location":"Castillejos","zip_code":"2208"},{"phone_area_code":"47","citymun_id":433,"location":"Iba","zip_code":"2201"},{"phone_area_code":"47","citymun_id":434,"location":"Mansiloc","zip_code":"2211"},{"phone_area_code":"47","citymun_id":435,"location":"Olongapo","zip_code":"2200"},{"phone_area_code":"47","citymun_id":436,"location":"Palauig","zip_code":"2210"},{"phone_area_code":"47","citymun_id":437,"location":"San Antonio","zip_code":"2206"},{"phone_area_code":"47","citymun_id":438,"location":"San Felipe","zip_code":"2204"},{"phone_area_code":"47","citymun_id":439,"location":"San Marcelino","zip_code":"2207"},{"phone_area_code":"47","citymun_id":440,"location":"San Narciso","zip_code":"2213"},{"phone_area_code":"47","citymun_id":441,"location":"Sta. Cruz","zip_code":"2213"},{"phone_area_code":"47","citymun_id":442,"location":"Subic","zip_code":"2209"}]},{"province_id":56,"data":[{"phone_area_code":"65","citymun_id":1180,"location":"Baliguian","zip_code":"7123"},{"phone_area_code":"65","citymun_id":1181,"location":"Dapitan City ","zip_code":"7101"},{"phone_area_code":"65","citymun_id":1182,"location":"Dipolog","zip_code":"7100"},{"phone_area_code":"65","citymun_id":1183,"location":"Gutalac","zip_code":"7108"},{"phone_area_code":"65","citymun_id":1185,"location":"Jose Dalman (ponot)","zip_code":"7111"},{"phone_area_code":"65","citymun_id":1186,"location":"Kalawit","zip_code":"7124"},{"phone_area_code":"65","citymun_id":1187,"location":"Katipunan","zip_code":"7109"},{"phone_area_code":"65","citymun_id":1189,"location":"Labason","zip_code":"7117"},{"phone_area_code":"65","citymun_id":1188,"location":"La Libertad","zip_code":"7119"},{"phone_area_code":"65","citymun_id":1191,"location":"Liloy","zip_code":"7115"},{"phone_area_code":"65","citymun_id":1192,"location":"Manukan","zip_code":"7110"},{"phone_area_code":"65","citymun_id":1193,"location":"Mutia","zip_code":"7107"},{"phone_area_code":"65","citymun_id":1194,"location":"Pinan","zip_code":"7105"},{"phone_area_code":"65","citymun_id":1195,"location":"Polanco","zip_code":"7106"},{"phone_area_code":"65","citymun_id":1197,"location":"Rizal","zip_code":"7104"},{"phone_area_code":"65","citymun_id":1196,"location":"Roxas","zip_code":"7102"},{"phone_area_code":"65","citymun_id":1198,"location":"Salug","zip_code":"7114"},{"phone_area_code":"65","citymun_id":1199,"location":"Sergio Osmena","zip_code":"7108"},{"phone_area_code":"65","citymun_id":1200,"location":"Siayan","zip_code":"7113"},{"phone_area_code":"65","citymun_id":1201,"location":"Sibuco","zip_code":"7122"},{"phone_area_code":"65","citymun_id":1202,"location":"Sibutad","zip_code":"7103"},{"phone_area_code":"65","citymun_id":1190,"location":"Sindangan (Leon B. Postigo)","zip_code":"7112"},{"phone_area_code":"65","citymun_id":1204,"location":"Siocon","zip_code":"7120"},{"phone_area_code":"65","citymun_id":1205,"location":"Siraway","zip_code":"7121"},{"phone_area_code":"65","citymun_id":1206,"location":"Tampilisan","zip_code":"7116"}]},{"province_id":57,"data":[{"phone_area_code":"62","citymun_id":1180,"location":"Alicia","zip_code":"7040"},{"phone_area_code":"62","citymun_id":1207,"location":"Aurora","zip_code":"7020"},{"phone_area_code":"62","citymun_id":1208,"location":"Bayog","zip_code":"7011"},{"phone_area_code":"62","citymun_id":1209,"location":"Dimataling","zip_code":"7032"},{"phone_area_code":"62","citymun_id":1210,"location":"Dinas","zip_code":"7030"},{"phone_area_code":"62","citymun_id":1186,"location":"Diplahan","zip_code":"7039"},{"phone_area_code":"62","citymun_id":1187,"location":"Don Mariano Marcos","zip_code":"7022"},{"phone_area_code":"62","citymun_id":1211,"location":"Dumalinao","zip_code":"7015"},{"phone_area_code":"62","citymun_id":1212,"location":"Dumingag","zip_code":"7028"},{"phone_area_code":"62","citymun_id":1213,"location":"Guipos","zip_code":"7042"},{"phone_area_code":"62","citymun_id":1192,"location":"Imelda","zip_code":"7007"},{"phone_area_code":"62","citymun_id":1193,"location":"Ipil","zip_code":"7001"},{"phone_area_code":"62","citymun_id":1214,"location":"Josefina","zip_code":"7027"},{"phone_area_code":"62","citymun_id":1195,"location":"Kabasalan","zip_code":"7005"},{"phone_area_code":"62","citymun_id":1215,"location":"Kumalarang","zip_code":"7013"},{"phone_area_code":"62","citymun_id":1216,"location":"Labangan","zip_code":"7017"},{"phone_area_code":"62","citymun_id":1217,"location":"Lakewood","zip_code":"7014"},{"phone_area_code":"62","citymun_id":1218,"location":"Lapuyan","zip_code":"7037"},{"phone_area_code":"62","citymun_id":1219,"location":"Mabuhay","zip_code":"7010"},{"phone_area_code":"62","citymun_id":1220,"location":"Mahayag","zip_code":"7026"},{"phone_area_code":"62","citymun_id":12,"location":"Malangas","zip_code":"7038"},{"phone_area_code":"62","citymun_id":1190,"location":"Margo Sa Tubig","zip_code":"7035"},{"phone_area_code":"62","citymun_id":1221,"location":"Midsalip","zip_code":"7021"},{"phone_area_code":"62","citymun_id":1222,"location":"Molave","zip_code":"7023"},{"phone_area_code":"62","citymun_id":1206,"location":"Naga","zip_code":"7004"},{"phone_area_code":"62","citymun_id":1180,"location":"Olutanga","zip_code":"7041"},{"phone_area_code":"62","citymun_id":1223,"location":"Pagadian City","zip_code":"7016"},{"phone_area_code":"62","citymun_id":1182,"location":"Payao","zip_code":"7008"},{"phone_area_code":"62","citymun_id":1224,"location":"Pitogo","zip_code":"7033"},{"phone_area_code":"62","citymun_id":1225,"location":"Ramon Magsaysay","zip_code":"7024"},{"phone_area_code":"62","citymun_id":1186,"location":"Reseller Lim","zip_code":"7002"},{"phone_area_code":"62","citymun_id":1226,"location":"San Miguel","zip_code":"7029"},{"phone_area_code":"62","citymun_id":1227,"location":"San Pablo","zip_code":"7031"},{"phone_area_code":"62","citymun_id":1188,"location":"Siay","zip_code":"7006"},{"phone_area_code":"62","citymun_id":1229,"location":"Tabina","zip_code":"7034"},{"phone_area_code":"62","citymun_id":1192,"location":"Talusan","zip_code":"7012"},{"phone_area_code":"62","citymun_id":1230,"location":"Tambulig","zip_code":"7025"},{"phone_area_code":"62","citymun_id":1231,"location":"Tigbao","zip_code":"7043"},{"phone_area_code":"62","citymun_id":1195,"location":"Titay","zip_code":"7003"},{"phone_area_code":"62","citymun_id":1232,"location":"Tukuran","zip_code":"7019"},{"phone_area_code":"62","citymun_id":1196,"location":"Tungawan","zip_code":"7018"},{"phone_area_code":"62","citymun_id":1233,"location":"Vicencio Sagun","zip_code":"7036"},{"phone_area_code":"62","citymun_id":1234,"location":"Zamboanga City","zip_code":"7000"}]}]